rank,property_id,address,latitude,longitude,price,currency,bathrooms,bedrooms,area,land_area,zestimate,rent_zestimate,days_on_zillow,sold_date,is_zillow_owned,image,listing_type,broker_name,input,property_url,listing_url
784,2067957778,"31119 Wyndfield Ct, Tomball, TX 77375",30.125583,-95.608875,372785,USD,2,4,2253.0 sqft,,,,0,,FALSE,https://photos.zillowstatic.com/fp/19b8c1adba31d5ca909ef6ef7749311d-p_e.jpg,New construction,"Turner Mangum,LLC",https://www.zillow.com/homes/TX_rb/,https://www.zillow.com/homedetails/31119-Wyndfield-Ct-Tomball-TX-77375/2067957778_zpid/,https://www.zillow.com/homes/TX_rb/20_p/
48,123782868,"700 S 2nd St, Maquoketa, IA 52060",42.059788,-90.66711,45000,USD,1,1,1056.0 sqft,,41100,827,0,,FALSE,https://photos.zillowstatic.com/fp/da7fcd5464e0b8fae29147f31a0513d4-p_e.jpg,House for sale,"eXp Realty, LLC",https://www.zillow.com/homes/IA_rb/,https://www.zillow.com/homedetails/700-S-2nd-St-Maquoketa-IA-52060/123782868_zpid/,https://www.zillow.com/homes/IA_rb/2_p/
12,122492394,"8814 Preserve Trl, San Antonio, TX 78254",29.523676,-98.727346,292500,USD,3,4,2499.0 sqft,,324100,2199,0,,FALSE,https://photos.zillowstatic.com/fp/1fe8849b15fca43c479c127ed2681e1d-p_e.jpg,House for sale,The Ortiz Firm,https://www.zillow.com/homes/TX_rb/,https://www.zillow.com/homedetails/8814-Preserve-Trl-San-Antonio-TX-78254/122492394_zpid/,https://www.zillow.com/homes/TX_rb/
325,30113787,"13 Bushwick Rd, Poughkeepsie, NY 12603",41.666772,-73.835651,535000,USD,2,3,2500.0 sqft,,332400,2600,0,,FALSE,https://photos.zillowstatic.com/fp/b376ecbcd9965a8f5e78d96cd28ae32a-p_e.jpg,House for sale,Listing by: C21 Alliance Realty Group Wf,https://www.zillow.com/homes/NY_rb/,https://www.zillow.com/homedetails/13-Bushwick-Rd-Poughkeepsie-NY-12603/30113787_zpid/,https://www.zillow.com/homes/NY_rb/9_p/
365,768592,"3606 SW 38th St, Des Moines, IA 50321",41.550797,-93.670318,392500,USD,4,4,2335.0 sqft,,386100,2282,1,,FALSE,https://photos.zillowstatic.com/fp/c970117636033636d6e60ec7c8b95df9-p_e.jpg,House for sale,RE/MAX Concepts,https://www.zillow.com/homes/IA_rb/,https://www.zillow.com/homedetails/3606-SW-38th-St-Des-Moines-IA-50321/768592_zpid/,https://www.zillow.com/homes/IA_rb/10_p/
491,2138683481,"13 Ulster Pl, Port Jervis, NY 12771",41.378137,-74.687371,229000,USD,2,6,1892.0 sqft,,,,0,,FALSE,https://photos.zillowstatic.com/fp/41b746fb6ab01e60a15f71b0ecfafc13-p_e.jpg,Multi-family home for sale,Listing by: ERA Meloi Realty Inc,https://www.zillow.com/homes/NY_rb/,https://www.zillow.com/homedetails/13-Ulster-Pl-Port-Jervis-NY-12771/2138683481_zpid/,https://www.zillow.com/homes/NY_rb/13_p/
170,241613119,"1713 SW Westview Dr, Ankeny, IA 50023",41.71376,-93.6127,360000,USD,3,4,1750.0 sqft,,,,0,,FALSE,https://photos.zillowstatic.com/fp/cadd5b1bb70db74267abeae392767da2-p_e.jpg,New construction,RE/MAX Concepts,https://www.zillow.com/homes/IA_rb/,https://www.zillow.com/homedetails/1713-SW-Westview-Dr-Ankeny-IA-50023/241613119_zpid/,https://www.zillow.com/homes/IA_rb/5_p/
557,32678314,"152 Maple Ave, Riverhead, NY 11901",40.919381,-72.659081,299999,USD,2,4,,,325000,6187,0,,FALSE,https://photos.zillowstatic.com/fp/8800e8c6c7880761dd650990a56aa1fb-p_e.jpg,House for sale,Listing by: Keller Williams Realty Greater,https://www.zillow.com/homes/NY_rb/,https://www.zillow.com/homedetails/152-Maple-Ave-Riverhead-NY-11901/32678314_zpid/,https://www.zillow.com/homes/NY_rb/14_p/
294,59479813,"23 Sycamore Cir, Stony Brook, NY 11790",40.893009,-73.108152,459000,USD,3,5,,,547700,4300,0,,FALSE,https://photos.zillowstatic.com/fp/d30465368e1667e439bd20ac1b10f133-p_e.jpg,House for sale,Listing by: Realty Connect USA L I Inc,https://www.zillow.com/homes/NY_rb/,https://www.zillow.com/homedetails/23-Sycamore-Cir-Stony-Brook-NY-11790/59479813_zpid/,https://www.zillow.com/homes/NY_rb/8_p/
516,31366057,"260 Locust Ave, Freeport, NY 11520",40.64758,-73.595769,569990,USD,3,2,,,515700,3764,0,,FALSE,https://photos.zillowstatic.com/fp/2ba0d15b77d6ed0792ef9b43a84b25a7-p_e.jpg,House for sale,Listing by: JB & Assoc Real Estate Inc,https://www.zillow.com/homes/NY_rb/,https://www.zillow.com/homedetails/260-Locust-Ave-Freeport-NY-11520/31366057_zpid/,https://www.zillow.com/homes/NY_rb/13_p/
470,182581251,"211 Allegro Ct, Montgomery, TX 77316",30.267861,-95.546561,449500,USD,4,4,2616.0 sqft,,389400,2304,0,,FALSE,https://photos.zillowstatic.com/fp/94e673f26d4f280030bf2830be1cc44d-p_e.jpg,House for sale,Coldwell Banker Realty,https://www.zillow.com/homes/TX_rb/,https://www.zillow.com/homedetails/211-Allegro-Ct-Montgomery-TX-77316/182581251_zpid/,https://www.zillow.com/homes/TX_rb/12_p/
677,30351178,"6995 E Eden Rd, Hamburg, NY 14075",42.696952,-78.833393,279900,USD,3,3,2113.0 sqft,,385300,2395,0,,FALSE,https://photos.zillowstatic.com/fp/718f7bb7818749267a9cd9a25ff17200-p_e.jpg,House for sale,Listing by: Hunt Real Estate ERA,https://www.zillow.com/homes/NY_rb/,https://www.zillow.com/homedetails/6995-E-Eden-Rd-Hamburg-NY-14075/30351178_zpid/,https://www.zillow.com/homes/NY_rb/17_p/
592,2067963199,"532 Lorimer St #3B, Brooklyn, NY 11211",40.712923,-73.948897,1540000,USD,2,2,1123.0 sqft,,,,0,,FALSE,https://photos.zillowstatic.com/fp/77c138ca373a60eb2a049747f223b7ac-p_e.jpg,Condo for sale,Listing by: Douglas Elliman,https://www.zillow.com/homes/NY_rb/,https://www.zillow.com/homedetails/532-Lorimer-St-3B-Brooklyn-NY-11211/2067963199_zpid/,https://www.zillow.com/homes/NY_rb/15_p/
729,26252122,"134 Brees Blvd, San Antonio, TX 78209",29.491788,-98.452321,499000,USD,2,3,1721.0 sqft,,436000,2499,0,,FALSE,https://photos.zillowstatic.com/fp/256722d6b5633ae175f39b2c653cbca3-p_e.jpg,House for sale,Kuper Sotheby's Int'l Realty,https://www.zillow.com/homes/TX_rb/,https://www.zillow.com/homedetails/134-Brees-Blvd-San-Antonio-TX-78209/26252122_zpid/,https://www.zillow.com/homes/TX_rb/19_p/
27,76754275,"206 S Eliza St, Maquoketa, IA 52060",42.067122,-90.663314,69000,USD,2,3,2085.0 sqft,,52500,999,0,,FALSE,https://photos.zillowstatic.com/fp/3660b37eb6ff3044ab0f29cc2c81eff5-p_e.jpg,House for sale,"eXp Realty, LLC",https://www.zillow.com/homes/IA_rb/,https://www.zillow.com/homedetails/206-S-Eliza-St-Maquoketa-IA-52060/76754275_zpid/,https://www.zillow.com/homes/IA_rb/
87,2067954500,"LOT 33 Deer Oaks Dr, Pipe Creek, TX 78063",29.622916,-98.948491,325000,USD,2,3,1342.0 sqft,,,,0,,FALSE,https://photos.zillowstatic.com/fp/18411d02b982368e9fe1a828063979df-p_e.jpg,New construction,"Texas Strong Realty, Inc.",https://www.zillow.com/homes/TX_rb/,https://www.zillow.com/homedetails/LOT-33-Deer-Oaks-Dr-Pipe-Creek-TX-78063/2067954500_zpid/,https://www.zillow.com/homes/TX_rb/3_p/
483,30298805,"89 Cass Ave, Cheektowaga, NY 14206",42.878878,-78.781148,189000,USD,2,3,1487.0 sqft,,183000,1599,0,,FALSE,https://photos.zillowstatic.com/fp/93a0cadcbb6f0eb8a57c72da48f77891-p_e.jpg,House for sale,Listing by: Prestige Family Realty,https://www.zillow.com/homes/NY_rb/,https://www.zillow.com/homedetails/89-Cass-Ave-Cheektowaga-NY-14206/30298805_zpid/,https://www.zillow.com/homes/NY_rb/13_p/
779,2111762530,"1 E Broadway APT 6R, Long Beach, NY 11561",40.585006,-73.66344,235000,USD,1,0,,,534500,1672,0,,FALSE,https://photos.zillowstatic.com/fp/8f18275980d8002577136b48cb516659-p_e.jpg,Condo for sale,Listing by: Coldwell Banker American Homes,https://www.zillow.com/homes/NY_rb/,https://www.zillow.com/homedetails/1-E-Broadway-APT-6R-Long-Beach-NY-11561/2111762530_zpid/,https://www.zillow.com/homes/NY_rb/20_p/
350,2067958573,"252 South St #48D, New York, NY 10002",40.710201,-73.989303,2500000,USD,2,2,1164.0 sqft,,,,0,,FALSE,https://photos.zillowstatic.com/fp/2cc860af36632dae2183eee547f8cbcb-p_e.jpg,Condo for sale,Listing by: Extell Marketing Group LLC,https://www.zillow.com/homes/NY_rb/,https://www.zillow.com/homedetails/252-South-St-48D-New-York-NY-10002/2067958573_zpid/,https://www.zillow.com/homes/NY_rb/9_p/
412,59599248,"22 Fuller St, Dix Hills, NY 11746",40.800206,-73.301568,599000,USD,3,4,2000.0 sqft,,555200,3705,0,,FALSE,https://photos.zillowstatic.com/fp/5dc2c1b3f24c054f4941f880b7cb4d74-p_e.jpg,House for sale,Listing by: Branch Real Estate Group LLC,https://www.zillow.com/homes/NY_rb/,https://www.zillow.com/homedetails/22-Fuller-St-Dix-Hills-NY-11746/59599248_zpid/,https://www.zillow.com/homes/NY_rb/11_p/
753,250484143,"714 E Division St, Colfax, IA 50054",41.677181,-93.233729,255000,USD,2,4,1767.0 sqft,,252100,1500,3,,FALSE,https://photos.zillowstatic.com/fp/55b9c7f3a0f1a46f81019122cdef728b-p_e.jpg,House for sale,Iowa Realty Newton,https://www.zillow.com/homes/IA_rb/,https://www.zillow.com/homedetails/714-E-Division-St-Colfax-IA-50054/250484143_zpid/,https://www.zillow.com/homes/IA_rb/19_p/
429,2069150424,"Ruby Plan, Heritage at Grimes",41.704548,-93.784362,446086,USD,4,4,1622.0 sqft,,,,2,,FALSE,https://photos.zillowstatic.com/fp/cea36bd3b0fd6de739fc198ec7e3c21d-p_e.jpg,New construction,,https://www.zillow.com/homes/IA_rb/,https://www.zillow.com/community/heritage-at-grimes/2069150424_zpid/,https://www.zillow.com/homes/IA_rb/11_p/
8,2067954221,"300 W 23rd St APT 3K, New York, NY 10011",40.745201,-73.999,725000,USD,1,0,,,,,0,,FALSE,https://photos.zillowstatic.com/fp/3942ca7c867bea4a5485167e7252f6a6-p_e.jpg,Condo for sale,"Listing by: Patrick Quagliano, LREB",https://www.zillow.com/homes/NY_rb/,https://www.zillow.com/homedetails/300-W-23rd-St-APT-3K-New-York-NY-10011/2067954221_zpid/,https://www.zillow.com/homes/NY_rb/
340,2067976694,"739 Boone St W, Webster City, IA 50595",42.463268,-93.823193,79000,USD,1,2,844.0 sqft,,,,1,,FALSE,https://photos.zillowstatic.com/fp/2e9cf3401f52944da0dc6bd16c5344b9-p_e.jpg,House for sale,,https://www.zillow.com/homes/IA_rb/,https://www.zillow.com/homedetails/739-Boone-St-W-Webster-City-IA-50595/2067976694_zpid/,https://www.zillow.com/homes/IA_rb/9_p/
164,29845236,"557 Logan Ave, Bronx, NY 10465",40.824335,-73.818424,1250000,USD,3,5,1875.0 sqft,,,,0,,FALSE,https://photos.zillowstatic.com/fp/ac2760bc46fe463059def30bc6456244-p_e.jpg,Multi-family home for sale,Listing by: Boutique Realty,https://www.zillow.com/homes/NY_rb/,https://www.zillow.com/homedetails/557-Logan-Ave-Bronx-NY-10465/29845236_zpid/,https://www.zillow.com/homes/NY_rb/5_p/
159,30985860,"195 Hurstbourne Rd, Rochester, NY 14609",43.17056,-77.55414,189900,USD,2,3,1550.0 sqft,,207200,1999,0,,FALSE,https://photos.zillowstatic.com/fp/2d3d4e91dcdfc110a5a83a9d91ced94f-p_e.jpg,House for sale,Listing by: Tru Agent Real Estate,https://www.zillow.com/homes/NY_rb/,https://www.zillow.com/homedetails/195-Hurstbourne-Rd-Rochester-NY-14609/30985860_zpid/,https://www.zillow.com/homes/NY_rb/4_p/
535,193013479,"70 Hidden Lakes Blvd, Gunter, TX 75058",33.46714,-96.706517,595000,USD,3,4,2700.0 sqft,,568600,2139,0,,FALSE,https://photos.zillowstatic.com/fp/46a0ecf75711ca96d7b3c26c349619b4-p_e.jpg,House for sale,,https://www.zillow.com/homes/TX_rb/,https://www.zillow.com/homedetails/70-Hidden-Lakes-Blvd-Gunter-TX-75058/193013479_zpid/,https://www.zillow.com/homes/TX_rb/14_p/
420,2067981161,"LOT 14 Heritage Ridge Ests, Dubuque, IA 52002",,,160000,USD,,,,2.9 acres,,,2,,FALSE,https://photos.zillowstatic.com/fp/b2d8392260a9f7f0ecb8212a4ed4a454-p_e.jpg,Lot / Land for sale,Keller Williams Midwest Partners,https://www.zillow.com/homes/IA_rb/,https://www.zillow.com/homedetails/LOT-14-Heritage-Ridge-Ests-Dubuque-IA-52002/2067981161_zpid/,https://www.zillow.com/homes/IA_rb/11_p/
482,2067962115,"128 Mount Pisgah Rd, Windham, NY 12496",42.373266,-74.251041,1399000,USD,5,5,4233.0 sqft,,,,0,,FALSE,https://photos.zillowstatic.com/fp/782bbcc35e264641e83b7d03c21ca7d3-p_e.jpg,House for sale,"Listing by: Shaw Country Realty, Inc.",https://www.zillow.com/homes/NY_rb/,https://www.zillow.com/homedetails/128-Mount-Pisgah-Rd-Windham-NY-12496/2067962115_zpid/,https://www.zillow.com/homes/NY_rb/13_p/
178,251434425,"3022 Phaeton Ct, Rosenberg, TX 77471",29.493706,-95.817769,255000,USD,2,3,1794.0 sqft,,252700,1899,0,,FALSE,https://photos.zillowstatic.com/fp/4b59409eae200c80396882ffd963f2a4-p_e.jpg,House for sale,Houston Realty,https://www.zillow.com/homes/TX_rb/,https://www.zillow.com/homedetails/3022-Phaeton-Ct-Rosenberg-TX-77471/251434425_zpid/,https://www.zillow.com/homes/TX_rb/5_p/
371,28917269,"2581 Alana Ln, Ingleside, TX 78362",27.86589,-97.200426,159900,USD,2,2,1004.0 sqft,,157600,1300,0,,FALSE,https://photos.zillowstatic.com/fp/ea3b62e254a7b52df17f458943eea565-p_e.jpg,House for sale,,https://www.zillow.com/homes/TX_rb/,https://www.zillow.com/homedetails/2581-Alana-Ln-Ingleside-TX-78362/28917269_zpid/,https://www.zillow.com/homes/TX_rb/10_p/
292,2067955154,"14503 Eetwater Ln, Baytown, TX 77523",,,279115,USD,2,3,1409.0 sqft,,,,0,,FALSE,https://photos.zillowstatic.com/fp/eb3d73a260cc3d7de2fe384c94740790-p_e.jpg,New construction,RE/MAX Fine Properties,https://www.zillow.com/homes/TX_rb/,https://www.zillow.com/homedetails/14503-Eetwater-Ln-Baytown-TX-77523/2067955154_zpid/,https://www.zillow.com/homes/TX_rb/8_p/
615,59563487,"73 Bellecrest Ave, East Northport, NY 11731",40.887863,-73.320799,600000,USD,2,4,,,581900,2065,0,,FALSE,https://photos.zillowstatic.com/fp/92949cbadfe4d3859af7b74047323a72-p_e.jpg,House for sale,Listing by: Coldwell Banker American Homes,https://www.zillow.com/homes/NY_rb/,https://www.zillow.com/homedetails/73-Bellecrest-Ave-East-Northport-NY-11731/59563487_zpid/,https://www.zillow.com/homes/NY_rb/16_p/
600,73067403,"2905 Bever Ave SE, Cedar Rapids, IA 52403",41.983878,-91.625511,159900,USD,2,3,1686.0 sqft,,158900,1307,2,,FALSE,https://photos.zillowstatic.com/fp/63620305ed7e911dfbd63213baaa9d2e-p_e.jpg,House for sale,COLDWELL BANKER HEDGES,https://www.zillow.com/homes/IA_rb/,https://www.zillow.com/homedetails/2905-Bever-Ave-SE-Cedar-Rapids-IA-52403/73067403_zpid/,https://www.zillow.com/homes/IA_rb/15_p/
170,65321423,"1 Morton Sq #6F, New York, NY 10014",40.730875,-74.009804,5775000,USD,4,3,2334.0 sqft,,3908100,5644,0,,FALSE,https://photos.zillowstatic.com/fp/47e0d14a39bc97f6ed4d275efb0416f4-p_e.jpg,Condo for sale,Listing by: Corcoran,https://www.zillow.com/homes/NY_rb/,https://www.zillow.com/homedetails/1-Morton-Sq-6F-New-York-NY-10014/65321423_zpid/,https://www.zillow.com/homes/NY_rb/5_p/
642,2073582534,"1004 Hazelnut Ct, Norwalk, IA 50211",41.476749,-93.69668,542655,USD,3,4,1632.0 sqft,,,,2,,FALSE,https://photos.zillowstatic.com/fp/a40e5cb21e4b56786f96f575c12bc3c7-p_e.jpg,New construction,RE/MAX Precision,https://www.zillow.com/homes/IA_rb/,https://www.zillow.com/homedetails/1004-Hazelnut-Ct-Norwalk-IA-50211/2073582534_zpid/,https://www.zillow.com/homes/IA_rb/17_p/
704,111379016,"464 Montauk Hwy, Westhampton Beach, NY 11978",40.822233,-72.632572,280000,USD,,0,,0.46 acres,,19999,0,,FALSE,https://photos.zillowstatic.com/fp/ce8a6791e49ef9cc34b586b50e614f12-p_e.jpg,Lot / Land for sale,Listing by: Compass,https://www.zillow.com/homes/NY_rb/,https://www.zillow.com/homedetails/464-Montauk-Hwy-Westhampton-Beach-NY-11978/111379016_zpid/,https://www.zillow.com/homes/NY_rb/18_p/
424,50314292,"2706 Westwood Main Dr, Bryan, TX 77807",30.620415,-96.386596,175000,USD,2,3,1097.0 sqft,,174000,1231,0,,FALSE,https://photos.zillowstatic.com/fp/f1c8c4d2a519edbef85bbde95c1d94ed-p_e.jpg,House for sale,Lkg Realty Advisors,https://www.zillow.com/homes/TX_rb/,https://www.zillow.com/homedetails/2706-Westwood-Main-Dr-Bryan-TX-77807/50314292_zpid/,https://www.zillow.com/homes/TX_rb/11_p/
63,31816083,"31 Orange Ave, Goshen, NY 10924",41.403596,-74.316219,359900,USD,2,3,2156.0 sqft,,,,0,,FALSE,https://photos.zillowstatic.com/fp/930136a6effff84dbcd5f7eb874e4e9f-p_e.jpg,House for sale,Listing by: Green Team New York Realty,https://www.zillow.com/homes/NY_rb/,https://www.zillow.com/homedetails/31-Orange-Ave-Goshen-NY-10924/31816083_zpid/,https://www.zillow.com/homes/NY_rb/2_p/
85,29569521,"827 Mica Ln, Leander, TX 78641",30.565274,-97.861062,299900,USD,2,2,822.0 sqft,,232700,1479,0,,FALSE,https://photos.zillowstatic.com/fp/dcc01a6d063dc846080f1a007ee1229a-p_e.jpg,Active,AustinVestors,https://www.zillow.com/homes/TX_rb/,https://www.zillow.com/homedetails/827-Mica-Ln-Leander-TX-78641/29569521_zpid/,https://www.zillow.com/homes/TX_rb/3_p/
490,73056083,"506 Bezdek Dr NW, Cedar Rapids, IA 52405",41.976925,-91.731468,249900,USD,3,3,1606.0 sqft,,227900,1527,2,,FALSE,https://photos.zillowstatic.com/fp/bc241c2e8a7b525427606d5cd7556c64-p_e.jpg,House for sale,eXp Realty,https://www.zillow.com/homes/IA_rb/,https://www.zillow.com/homedetails/506-Bezdek-Dr-NW-Cedar-Rapids-IA-52405/73056083_zpid/,https://www.zillow.com/homes/IA_rb/13_p/
194,32662073,"(undisclosed Address), East Hampton, NY 11937",,,1295000,USD,2,3,1500.0 sqft,,1295005,16231,0,,FALSE,https://photos.zillowstatic.com/fp/d65f1f36d47d701492bbf0dcc27e20ac-p_e.jpg,House for sale,Listing by: Saunders & Associates,https://www.zillow.com/homes/NY_rb/,https://www.zillow.com/homedetails/East-Hampton-NY-11937/32662073_zpid/,https://www.zillow.com/homes/NY_rb/5_p/
103,76652008,"2904 Neola St, Cedar Falls, IA 50613",42.512086,-92.413295,269900,USD,3,4,2156.0 sqft,,195000,1470,0,,FALSE,https://photos.zillowstatic.com/fp/98dfaa86f633868c5a6bee605b684aa6-p_e.jpg,House for sale,Amy Wienands Real Estate,https://www.zillow.com/homes/IA_rb/,https://www.zillow.com/homedetails/2904-Neola-St-Cedar-Falls-IA-50613/76652008_zpid/,https://www.zillow.com/homes/IA_rb/3_p/
449,306028963,"608 Rolling Hills Dr, Tiffin, IA 52340",41.713359,-91.654942,574500,USD,4,6,3288.0 sqft,,567500,,2,,FALSE,https://photos.zillowstatic.com/fp/88d42638c8dff631b4ea0d036b563b76-p_e.jpg,New construction,,https://www.zillow.com/homes/IA_rb/,https://www.zillow.com/homedetails/608-Rolling-Hills-Dr-Tiffin-IA-52340/306028963_zpid/,https://www.zillow.com/homes/IA_rb/12_p/
261,76877931,"508 W Main St, Agency, IA 52530",40.99472,-92.314053,147500,USD,1,3,1100.0 sqft,,,930,1,,FALSE,https://photos.zillowstatic.com/fp/fb7f573c4be92181bfb414fd7a2c03a5-p_e.jpg,New construction,Bridge City Realty,https://www.zillow.com/homes/IA_rb/,https://www.zillow.com/homedetails/508-W-Main-St-Agency-IA-52530/76877931_zpid/,https://www.zillow.com/homes/IA_rb/7_p/
336,64656171,"78 E Bayview Ave #12B, Ocean Beach, NY 11770",40.650801,-73.137761,415000,USD,1,0,,,418300,3268,0,,FALSE,https://photos.zillowstatic.com/fp/b9322d5c02d2107963f18bf16fe43274-p_e.jpg,Condo for sale,Listing by: Douglas Elliman Real Estate,https://www.zillow.com/homes/NY_rb/,https://www.zillow.com/homedetails/78-E-Bayview-Ave-12B-Ocean-Beach-NY-11770/64656171_zpid/,https://www.zillow.com/homes/NY_rb/9_p/
484,30389450,"468 Woodstock Ave, Tonawanda, NY 14150",42.994611,-78.835632,167777,USD,2,3,1207.0 sqft,,183000,1663,0,,FALSE,https://photos.zillowstatic.com/fp/f5e19643fd775fe84ba074d4722aaa48-p_e.jpg,House for sale,Listing by: Howard Hanna,https://www.zillow.com/homes/NY_rb/,https://www.zillow.com/homedetails/468-Woodstock-Ave-Tonawanda-NY-14150/30389450_zpid/,https://www.zillow.com/homes/NY_rb/13_p/
392,2068443875,"0 Franklin Rd, Walton, NY 13856",42.178707,-75.122316,369000,USD,,,,47.51 acres,,,0,,FALSE,https://photos.zillowstatic.com/fp/55902efc0499e3f9d7e862ec114b6ea4-p_e.jpg,Lot / Land for sale,Listing by: Power Team Realty Corp,https://www.zillow.com/homes/NY_rb/,https://www.zillow.com/homedetails/0-Franklin-Rd-Walton-NY-13856/2068443875_zpid/,https://www.zillow.com/homes/NY_rb/10_p/
732,2067957240,"Giallo III Plan, The Highlands Brookstone Collection",30.1519,-95.3219,376999,USD,4,4,2569.0 sqft,,,,0,,FALSE,https://photos.zillowstatic.com/fp/c31ec7fe6cabbc44121398931766cd5d-p_e.jpg,New construction,,https://www.zillow.com/homes/TX_rb/,https://www.zillow.com/community/highlands-brookstone-collection/2067957240_zpid/,https://www.zillow.com/homes/TX_rb/19_p/
56,80194420,"36 Grandview Pl, Florida, NY 10921",41.314504,-74.348527,437000,USD,3,3,1943.0 sqft,,,,0,,FALSE,https://photos.zillowstatic.com/fp/68572d087ee5ec2092622f954a07edce-p_e.jpg,House for sale,Listing by: Green Team New York Realty,https://www.zillow.com/homes/NY_rb/,https://www.zillow.com/homedetails/36-Grandview-Pl-Florida-NY-10921/80194420_zpid/,https://www.zillow.com/homes/NY_rb/2_p/
496,30747610,"2434 E 11th St, Brooklyn, NY 11235",40.590836,-73.959898,1299000,USD,3,4,976.0 sqft,,1238998,2787,0,,FALSE,https://photos.zillowstatic.com/fp/9370e828bbdf781f07372c7e4c9b0b2c-p_e.jpg,House for sale,Listing by: Coldwell Banker Reliable,https://www.zillow.com/homes/NY_rb/,https://www.zillow.com/homedetails/2434-E-11th-St-Brooklyn-NY-11235/30747610_zpid/,https://www.zillow.com/homes/NY_rb/13_p/
489,235275379,"210 E Cheshire St, Birmingham, IA 52535",40.880165,-91.946802,98500,USD,2,3,1763.0 sqft,,91600,900,2,,FALSE,https://photos.zillowstatic.com/fp/1c6574459b1359d57704411577211745-p_e.jpg,House for sale,Miller Realty,https://www.zillow.com/homes/IA_rb/,https://www.zillow.com/homedetails/210-E-Cheshire-St-Birmingham-IA-52535/235275379_zpid/,https://www.zillow.com/homes/IA_rb/13_p/
528,125249115,"28459 Willis Rnch, San Antonio, TX 78260",29.719729,-98.454128,510000,USD,4,4,3631.0 sqft,,495200,2702,0,,FALSE,https://photos.zillowstatic.com/fp/b4750f88097e9a260a48fd9c59c3be29-p_e.jpg,House for sale,"eXp Realty, LLC",https://www.zillow.com/homes/TX_rb/,https://www.zillow.com/homedetails/28459-Willis-Rnch-San-Antonio-TX-78260/125249115_zpid/,https://www.zillow.com/homes/TX_rb/14_p/
388,121109725,"22307 Sheldonwood Ct, Katy, TX 77449",29.819731,-95.759751,269000,USD,2,3,1838.0 sqft,,269400,1881,0,,FALSE,https://photos.zillowstatic.com/fp/639a78e80660301884da48df62c59513-p_e.jpg,House for sale,Keller Williams Signature,https://www.zillow.com/homes/TX_rb/,https://www.zillow.com/homedetails/22307-Sheldonwood-Ct-Katy-TX-77449/121109725_zpid/,https://www.zillow.com/homes/TX_rb/10_p/
235,2067957683,"30 Bay 29 St #2D, Brooklyn, NY 11214",40.60184,-73.99553,438000,USD,1,2,1064.0 sqft,,,,0,,FALSE,https://photos.zillowstatic.com/fp/cc905e006b67e3159f55bae403b4163b-p_e.jpg,Condo for sale,Listing by: Momentum Real Estate LLC,https://www.zillow.com/homes/NY_rb/,https://www.zillow.com/homedetails/30-Bay-29-St-2D-Brooklyn-NY-11214/2067957683_zpid/,https://www.zillow.com/homes/NY_rb/6_p/
117,26259226,"138 Ware Blvd, San Antonio, TX 78221",29.34832,-98.502222,199900,USD,1,2,1150.0 sqft,,153400,1308,0,,FALSE,https://photos.zillowstatic.com/fp/078cee6840d06f02f9796c04f2b18b3f-p_e.jpg,House for sale,RE/MAX Unlimited,https://www.zillow.com/homes/TX_rb/,https://www.zillow.com/homedetails/138-Ware-Blvd-San-Antonio-TX-78221/26259226_zpid/,https://www.zillow.com/homes/TX_rb/3_p/
519,2067962577,"340 Bird Ave #200, Buffalo, NY 14213",42.926203,-78.886258,425000,USD,3,3,1740.0 sqft,,,,0,,FALSE,https://photos.zillowstatic.com/fp/7f182ce7e72afe2fc772f59d7322697d-p_e.jpg,Condo for sale,Listing by: Hunt Real Estate ERA,https://www.zillow.com/homes/NY_rb/,https://www.zillow.com/homedetails/340-Bird-Ave-200-Buffalo-NY-14213/2067962577_zpid/,https://www.zillow.com/homes/NY_rb/13_p/
155,59316372,"33 Tall Tree Ln, Rocky Point, NY 11778",40.953883,-72.950962,450000,USD,2,3,,,454900,3280,0,,FALSE,https://photos.zillowstatic.com/fp/7e41f1a649d87a4acd830b16eb4f52b6-p_e.jpg,House for sale,Listing by: Exit Realty Island Elite,https://www.zillow.com/homes/NY_rb/,https://www.zillow.com/homedetails/33-Tall-Tree-Ln-Rocky-Point-NY-11778/59316372_zpid/,https://www.zillow.com/homes/NY_rb/4_p/
559,89415255,"1522 Oak Harbor Dr, Corpus Christi, TX 78418",27.660039,-97.310272,225000,USD,2,4,1600.0 sqft,,237800,1942,0,,FALSE,https://photos.zillowstatic.com/fp/00afc5cd24bf45d4a5a2ec04b0d7b9d4-p_e.jpg,House for sale,Selby Properties,https://www.zillow.com/homes/TX_rb/,https://www.zillow.com/homedetails/1522-Oak-Harbor-Dr-Corpus-Christi-TX-78418/89415255_zpid/,https://www.zillow.com/homes/TX_rb/14_p/
391,31825749,"3 Davenport Ct, Monroe, NY 10950",41.322391,-74.171842,459900,USD,2,4,1602.0 sqft,,,,0,,FALSE,https://photos.zillowstatic.com/fp/96246a72ecf7a6bff8b94cb95dc179cb-p_e.jpg,Foreclosure,Listing by: United Hudson Realty LLC,https://www.zillow.com/homes/NY_rb/,https://www.zillow.com/homedetails/3-Davenport-Ct-Monroe-NY-10950/31825749_zpid/,https://www.zillow.com/homes/NY_rb/10_p/
18,75316115,"2434 Dallas St, San Angelo, TX 76901",31.456109,-100.472663,149900,USD,1,3,1218.0 sqft,,120000,1221,0,,FALSE,https://photos.zillowstatic.com/fp/9f8c22d4b9b299ba2e6244524315921a-p_e.jpg,House for sale,,https://www.zillow.com/homes/TX_rb/,https://www.zillow.com/homedetails/2434-Dallas-St-San-Angelo-TX-76901/75316115_zpid/,https://www.zillow.com/homes/TX_rb/
268,244892041,"9 White St APT 3, New York, NY 10013",40.719044,-74.005761,4425000,USD,1,3,3000.0 sqft,,2761300,5526,0,,FALSE,https://photos.zillowstatic.com/fp/f5890315f990c0633ca507f405683fb8-p_e.jpg,Condo for sale,Listing by: Compass,https://www.zillow.com/homes/NY_rb/,https://www.zillow.com/homedetails/9-White-St-APT-3-New-York-NY-10013/244892041_zpid/,https://www.zillow.com/homes/NY_rb/7_p/
612,2067990575,"510 Knollwood Dr SE, Cedar Rapids, IA 52403",41.98135,-91.637193,610900,USD,6,5,4589.0 sqft,,,,2,,FALSE,"https://maps.googleapis.com/maps/api/staticmap?mobile=false&sensor=true&maptype=satellite&size=575x242&zoom=17&center=41.98135,-91.637193&key=AIzaSyBJsNQO5ZeG-XAbqqWLKwG08fWITSxg33w&signature=KFNbYNL6lluoIEwt3p19y9S7zL4=",House for sale,SKOGMAN REALTY,https://www.zillow.com/homes/IA_rb/,https://www.zillow.com/homedetails/510-Knollwood-Dr-SE-Cedar-Rapids-IA-52403/2067990575_zpid/,https://www.zillow.com/homes/IA_rb/16_p/
79,31739790,"34 Artillery Ln, Baldwinsville, NY 13027",43.165963,-76.34258,199900,USD,3,4,1686.0 sqft,,,,0,,FALSE,https://photos.zillowstatic.com/fp/0b8d52ce3f93a16ff53ca43296be7b8f-p_e.jpg,House for sale,Listing by: Hunt Real Estate ERA,https://www.zillow.com/homes/NY_rb/,https://www.zillow.com/homedetails/34-Artillery-Ln-Baldwinsville-NY-13027/31739790_zpid/,https://www.zillow.com/homes/NY_rb/2_p/
669,112155372,"2323 Snowy Egret Dr, Katy, TX 77494",29.741555,-95.823594,360000,USD,2,3,2152.0 sqft,,369800,2261,0,,FALSE,https://photos.zillowstatic.com/fp/b56090911ec04120056d28638ce2533d-p_e.jpg,House for sale,"Compass RE Texas, LLC",https://www.zillow.com/homes/TX_rb/,https://www.zillow.com/homedetails/2323-Snowy-Egret-Dr-Katy-TX-77494/112155372_zpid/,https://www.zillow.com/homes/TX_rb/17_p/
786,2108170338,"240 Bronxville Rd APT B4, Bronxville, NY 10708",40.941344,-73.840723,365000,USD,2,2,1410.0 sqft,,,,0,,FALSE,https://photos.zillowstatic.com/fp/46f1cf266b480a386600d5642f0b63b4-p_e.jpg,Condo for sale,Listing by: Redfin Real Estate,https://www.zillow.com/homes/NY_rb/,https://www.zillow.com/homedetails/240-Bronxville-Rd-APT-B4-Bronxville-NY-10708/2108170338_zpid/,https://www.zillow.com/homes/NY_rb/20_p/
760,83894027,"5414 Thyme Ln, Baytown, TX 77521",29.821395,-94.979314,260000,USD,3,4,2495.0 sqft,,260000,1995,0,,FALSE,https://photos.zillowstatic.com/fp/079ede0c89f2704c162b3d9356ef0e99-p_e.jpg,House for sale,Keller Williams Signature,https://www.zillow.com/homes/TX_rb/,https://www.zillow.com/homedetails/5414-Thyme-Ln-Baytown-TX-77521/83894027_zpid/,https://www.zillow.com/homes/TX_rb/19_p/
684,50465805,"3031 N Mercury Ave, Odessa, TX 79764",31.858136,-102.446228,169900,USD,1,3,1092.0 sqft,,165045,1640,0,,FALSE,https://photos.zillowstatic.com/fp/57c0b8b1746c28785f0e3f0eb4e21ca6-p_e.jpg,House for sale,,https://www.zillow.com/homes/TX_rb/,https://www.zillow.com/homedetails/3031-N-Mercury-Ave-Odessa-TX-79764/50465805_zpid/,https://www.zillow.com/homes/TX_rb/18_p/
576,32481743,"35 Sunnyside Rd, Scotia, NY 12302",42.830192,-73.952627,274900,USD,3,3,1750.0 sqft,,257800,1599,0,,FALSE,https://photos.zillowstatic.com/fp/f74d61cb86e1ef14669b206eca402945-p_e.jpg,House for sale,Listing by: Keller Williams Capital Dist,https://www.zillow.com/homes/NY_rb/,https://www.zillow.com/homedetails/35-Sunnyside-Rd-Scotia-NY-12302/32481743_zpid/,https://www.zillow.com/homes/NY_rb/15_p/
722,59465292,"7 Saint George Glen Dr, East Setauket, NY 11733",40.925286,-73.110413,899000,USD,4,5,,,888300,5324,0,,FALSE,https://photos.zillowstatic.com/fp/3255cb608c1eb326ae6abcd0b5d0cd2d-p_e.jpg,House for sale,Listing by: Coach Real Estate Assoc Inc,https://www.zillow.com/homes/NY_rb/,https://www.zillow.com/homedetails/7-Saint-George-Glen-Dr-East-Setauket-NY-11733/59465292_zpid/,https://www.zillow.com/homes/NY_rb/19_p/
729,2078244195,"345 W 145th St APT 12B5, New York, NY 10031",40.8241,-73.944099,467000,USD,1,1,820.0 sqft,,,2057,0,,FALSE,https://photos.zillowstatic.com/fp/0eb97554410aced4a15bd1a1e4353423-p_e.jpg,Condo for sale,Listing by: Brown Harris Stevens,https://www.zillow.com/homes/NY_rb/,https://www.zillow.com/homedetails/345-W-145th-St-APT-12B5-New-York-NY-10031/2078244195_zpid/,https://www.zillow.com/homes/NY_rb/19_p/
768,31558704,"407 William St, Rome, NY 13440",43.219306,-75.459701,124900,USD,,,2043.0 sqft,,93200,1784,0,,FALSE,https://photos.zillowstatic.com/fp/abde923fd0ab90d323367d70876161ea-p_e.jpg,Multi-family home for sale,Listing by: COLDWELL BANKER PRIME PROPERTIES,https://www.zillow.com/homes/NY_rb/,https://www.zillow.com/homedetails/407-William-St-Rome-NY-13440/31558704_zpid/,https://www.zillow.com/homes/NY_rb/20_p/
473,32600040,"77 Alton Rd, Babylon, NY 11702",40.685339,-73.335967,679900,USD,3,5,,,671300,3436,0,,FALSE,https://photos.zillowstatic.com/fp/e268c38cf7c20070576050357f756932-p_e.jpg,House for sale,Listing by: BERKSHIRE HATHAWAY,https://www.zillow.com/homes/NY_rb/,https://www.zillow.com/homedetails/77-Alton-Rd-Babylon-NY-11702/32600040_zpid/,https://www.zillow.com/homes/NY_rb/12_p/
293,27555162,"24311 Bay Hill Blvd, Katy, TX 77494",29.765725,-95.793785,485000,USD,4,4,3567.0 sqft,,475800,3399,0,,FALSE,https://photos.zillowstatic.com/fp/bd37a31d417ce21ccf60c426d59fea08-p_e.jpg,House for sale,NICOLE FREER GROUP,https://www.zillow.com/homes/TX_rb/,https://www.zillow.com/homedetails/24311-Bay-Hill-Blvd-Katy-TX-77494/27555162_zpid/,https://www.zillow.com/homes/TX_rb/8_p/
761,244596864,"350 Richmond Ter APT 2A, Staten Island, NY 10301",40.647916,-74.085271,249000,USD,1,1,853.0 sqft,,295500,1717,0,,FALSE,https://photos.zillowstatic.com/fp/eb4597c8a2ebf03114e2be6a64b903e9-p_e.jpg,Condo for sale,Listing by: Gateway Arms Realty Corp.,https://www.zillow.com/homes/NY_rb/,https://www.zillow.com/homedetails/350-Richmond-Ter-APT-2A-Staten-Island-NY-10301/244596864_zpid/,https://www.zillow.com/homes/NY_rb/20_p/
309,125230453,"3871 Blackchamp Rd, Waxahachie, TX 76065",32.439565,-96.90266,529000,USD,5,5,3250.0 sqft,,626400,1890,0,,FALSE,https://photos.zillowstatic.com/fp/c7e8430be2b8724afd19ec0ff0262066-p_e.jpg,House for sale,,https://www.zillow.com/homes/TX_rb/,https://www.zillow.com/homedetails/3871-Blackchamp-Rd-Waxahachie-TX-76065/125230453_zpid/,https://www.zillow.com/homes/TX_rb/8_p/
443,28668719,"15987 County Road 355, Terrell, TX 75161",32.782494,-96.190455,449000,USD,2,3,1728.0 sqft,,286500,1697,0,,FALSE,https://photos.zillowstatic.com/fp/81acda467514852370b015c58caf4039-p_e.jpg,House for sale,,https://www.zillow.com/homes/TX_rb/,https://www.zillow.com/homedetails/15987-County-Road-355-Terrell-TX-75161/28668719_zpid/,https://www.zillow.com/homes/TX_rb/12_p/
49,29155503,"5016 Boulder Lake Rd, Fort Worth, TX 76103",32.765251,-97.247761,285000,USD,4,3,2433.0 sqft,,315600,2834,0,,FALSE,https://photos.zillowstatic.com/fp/1dac339622f5f6bc96af83d55fa45140-p_e.jpg,House for sale,,https://www.zillow.com/homes/TX_rb/,https://www.zillow.com/homedetails/5016-Boulder-Lake-Rd-Fort-Worth-TX-76103/29155503_zpid/,https://www.zillow.com/homes/TX_rb/2_p/
209,29121389,"5413 Cox St, Fort Worth, TX 76105",32.711202,-97.239386,120000,USD,,,,0.45 acres,,1153,0,,FALSE,https://photos.zillowstatic.com/fp/54995e4b906743a53c72846a5824c1ef-p_e.jpg,Lot / Land for sale,,https://www.zillow.com/homes/TX_rb/,https://www.zillow.com/homedetails/5413-Cox-St-Fort-Worth-TX-76105/29121389_zpid/,https://www.zillow.com/homes/TX_rb/6_p/
381,26469568,"10902 Calmon Park, San Antonio, TX 78249",29.547332,-98.636272,384000,USD,4,5,3205.0 sqft,,369000,2600,0,,FALSE,https://photos.zillowstatic.com/fp/be1236fed340c80f6cd9c31953c80449-p_e.jpg,House for sale,"eXp Realty, LLC",https://www.zillow.com/homes/TX_rb/,https://www.zillow.com/homedetails/10902-Calmon-Park-San-Antonio-TX-78249/26469568_zpid/,https://www.zillow.com/homes/TX_rb/10_p/
452,86956786,"1813 Jenny Ln, Eldora, IA 50627",42.355013,-93.089272,142900,USD,2,2,1792.0 sqft,,142900,1114,2,,FALSE,https://photos.zillowstatic.com/fp/1ae9935f3c4b57a57be006352b081aa9-p_e.jpg,House for sale,Five Star Real Estate Group,https://www.zillow.com/homes/IA_rb/,https://www.zillow.com/homedetails/1813-Jenny-Ln-Eldora-IA-50627/86956786_zpid/,https://www.zillow.com/homes/IA_rb/12_p/
456,2067980846,"11515 NE 110th Ave, Maxwell, IA 50161",41.760782,-93.356972,239000,USD,,0,,12 acres,,,2,,FALSE,https://photos.zillowstatic.com/fp/e5a77b3250f209e1d32d872b0f58cb8e-p_e.jpg,Lot / Land for sale,WB Realty Company,https://www.zillow.com/homes/IA_rb/,https://www.zillow.com/homedetails/11515-NE-110th-Ave-Maxwell-IA-50161/2067980846_zpid/,https://www.zillow.com/homes/IA_rb/12_p/
561,61001402,"2351 Pine Lake Rd, Penn Yan, NY 14527",42.648829,-77.176723,195000,USD,1,2,1584.0 sqft,,,,0,,FALSE,https://photos.zillowstatic.com/fp/3100c7ee3f897c9e65ea99015e7c9a89-p_e.jpg,House for sale,Listing by: Finger Lakes Realty,https://www.zillow.com/homes/NY_rb/,https://www.zillow.com/homedetails/2351-Pine-Lake-Rd-Penn-Yan-NY-14527/61001402_zpid/,https://www.zillow.com/homes/NY_rb/15_p/
279,247174389,"6636 30th Avenue Dr, Shellsburg, IA 52332",42.059778,-91.90505,795000,USD,7,8,6375.0 sqft,,221400,999,1,,FALSE,https://photos.zillowstatic.com/fp/5b6b120ad9ecfa8e0a7877da52153f18-p_e.jpg,New construction,Pinnacle Realty LLC,https://www.zillow.com/homes/IA_rb/,https://www.zillow.com/homedetails/6636-30th-Avenue-Dr-Shellsburg-IA-52332/247174389_zpid/,https://www.zillow.com/homes/IA_rb/7_p/
118,114463383,"516 Mill Run, Dubuque, IA 52002",42.517274,-90.726227,560000,USD,4,4,4029.0 sqft,,550100,2667,0,,FALSE,https://photos.zillowstatic.com/fp/012fd5ad0b9dd02c509c11af6aec0b55-p_e.jpg,House for sale,Remax Advantage,https://www.zillow.com/homes/IA_rb/,https://www.zillow.com/homedetails/516-Mill-Run-Dubuque-IA-52002/114463383_zpid/,https://www.zillow.com/homes/IA_rb/3_p/
382,55659599,"2914 Mable Dr, Canyon, TX 79015",34.973968,-101.907248,42000,USD,,0,,"10,454 sqft",,993,0,,FALSE,https://photos.zillowstatic.com/fp/ce96b3dcc38f3580f3b126df9a6f9fc3-p_e.jpg,Lot / Land for sale,,https://www.zillow.com/homes/TX_rb/,https://www.zillow.com/homedetails/2914-Mable-Dr-Canyon-TX-79015/55659599_zpid/,https://www.zillow.com/homes/TX_rb/10_p/
785,2067964585,"69-44 168th St, Fresh Meadows, NY 11365",40.73169,-73.801632,1049000,USD,3,3,,,,,0,,FALSE,https://photos.zillowstatic.com/fp/2a3c3034bd1e87a267974f0e242e4bf4-p_e.jpg,Coming soon,Listing by: Keller Williams Rlty Landmark,https://www.zillow.com/homes/NY_rb/,https://www.zillow.com/homedetails/69-44-168th-St-Fresh-Meadows-NY-11365/2067964585_zpid/,https://www.zillow.com/homes/NY_rb/20_p/
136,98309250,"2305 Blue Star Dr, Corpus Christi, TX 78414",27.67781,-97.345115,210000,USD,2,3,1226.0 sqft,,211500,1697,0,,FALSE,https://photos.zillowstatic.com/fp/de0210ab45e7c4a257d0310e582e2bb5-p_e.jpg,House for sale,Keller Williams Coastal Bend,https://www.zillow.com/homes/TX_rb/,https://www.zillow.com/homedetails/2305-Blue-Star-Dr-Corpus-Christi-TX-78414/98309250_zpid/,https://www.zillow.com/homes/TX_rb/4_p/
58,76656287,"414 Belmont Ave, Waterloo, IA 50701",42.493458,-92.355356,24900,USD,1,2,1044.0 sqft,,35200,767,0,,FALSE,https://photos.zillowstatic.com/fp/9e9b24ca86083fa5d1c87c463675e347-p_e.jpg,Townhouse for sale,Oakridge Real Estate,https://www.zillow.com/homes/IA_rb/,https://www.zillow.com/homedetails/414-Belmont-Ave-Waterloo-IA-50701/76656287_zpid/,https://www.zillow.com/homes/IA_rb/2_p/
167,2067956522,"689 Quincy St #1B, Brooklyn, NY 11221",40.689422,-73.931261,849000,USD,2,1,1288.0 sqft,,,,0,,FALSE,https://photos.zillowstatic.com/fp/d379cfb3ac3b5bac24fb07b0110b0d61-p_e.jpg,Condo for sale,Listing by: Douglas Elliman,https://www.zillow.com/homes/NY_rb/,https://www.zillow.com/homedetails/689-Quincy-St-1B-Brooklyn-NY-11221/2067956522_zpid/,https://www.zillow.com/homes/NY_rb/5_p/
272,28517739,"14315 Cypress Valley Dr, Cypress, TX 77429",30.000242,-95.637868,250000,USD,2,4,1895.0 sqft,,250300,1900,0,,FALSE,https://photos.zillowstatic.com/fp/00599f5f32ce0e670525af6532e09cbc-p_e.jpg,House for sale,Martha Turner Sotheby's,https://www.zillow.com/homes/TX_rb/,https://www.zillow.com/homedetails/14315-Cypress-Valley-Dr-Cypress-TX-77429/28517739_zpid/,https://www.zillow.com/homes/TX_rb/7_p/
468,2067956191,"26541 Easy St, Magnolia, TX 77355",30.18861,-95.791373,275000,USD,2,3,1377.0 sqft,,,,0,,FALSE,https://photos.zillowstatic.com/fp/b2d9fb8ccb72d087d0cf8f1db264f81e-p_e.jpg,New construction,Cadavid Properties Inc,https://www.zillow.com/homes/TX_rb/,https://www.zillow.com/homedetails/26541-Easy-St-Magnolia-TX-77355/2067956191_zpid/,https://www.zillow.com/homes/TX_rb/12_p/
756,2067957647,"0 County Rd, Portland, TX 78374",,,395530,USD,,0,,,,,0,,FALSE,https://photos.zillowstatic.com/fp/c6d934a6a1b0910668c0f9062059fd85-p_e.jpg,House for sale,Cass Real Estate,https://www.zillow.com/homes/TX_rb/,https://www.zillow.com/homedetails/0-County-Rd-Portland-TX-78374/2067957647_zpid/,https://www.zillow.com/homes/TX_rb/19_p/
163,232419489,"215 Broad St, Grinnell, IA 50112",41.733772,-92.724613,115000,USD,1,2,988.0 sqft,,,,0,,FALSE,https://photos.zillowstatic.com/fp/2e33a7d02a917b347c14354495ea3a5a-p_e.jpg,House for sale,Found It,https://www.zillow.com/homes/IA_rb/,https://www.zillow.com/homedetails/215-Broad-St-Grinnell-IA-50112/232419489_zpid/,https://www.zillow.com/homes/IA_rb/5_p/
432,125377888,"1102 Broadway St, Audubon, IA 50025",41.72335,-94.921245,15870,USD,1,2,1000.0 sqft,,75800,795,2,,FALSE,https://photos.zillowstatic.com/fp/4eca3900443fab3f5dd5b5e5a6d96191-p_e.jpg,Foreclosure,Silverado Realty,https://www.zillow.com/homes/IA_rb/,https://www.zillow.com/homedetails/1102-Broadway-St-Audubon-IA-50025/125377888_zpid/,https://www.zillow.com/homes/IA_rb/11_p/
237,76885270,"812 Lake Rd, Ottumwa, IA 52501",40.990454,-92.446773,225000,USD,1,3,1120.0 sqft,,111300,680,1,,FALSE,https://photos.zillowstatic.com/fp/ada44dbf9857e11afa9e75ef2c83812c-p_e.jpg,House for sale,Bridge City Realty,https://www.zillow.com/homes/IA_rb/,https://www.zillow.com/homedetails/812-Lake-Rd-Ottumwa-IA-52501/76885270_zpid/,https://www.zillow.com/homes/IA_rb/6_p/
251,2067957891,"70 Poughkeepsie Ct, Staten Island, NY 10312",40.525087,-74.169855,709000,USD,,,,"10,012 sqft",,,0,,FALSE,https://photos.zillowstatic.com/fp/fa50bde790adc7eb144d4a9352eab7f3-p_e.jpg,Lot / Land for sale,"Listing by: Robert DeFalco Realty, Inc.",https://www.zillow.com/homes/NY_rb/,https://www.zillow.com/homedetails/70-Poughkeepsie-Ct-Staten-Island-NY-10312/2067957891_zpid/,https://www.zillow.com/homes/NY_rb/7_p/
583,122523983,"1310 Daybreak Way, Midland, TX 79705",32.065157,-102.079866,379900,USD,2,3,2468.0 sqft,,,,0,,FALSE,https://photos.zillowstatic.com/fp/31e995400975aff75fcb5cf74fc22aa5-p_e.jpg,House for sale,"Up Group, Realtors",https://www.zillow.com/homes/TX_rb/,https://www.zillow.com/homedetails/1310-Daybreak-Way-Midland-TX-79705/122523983_zpid/,https://www.zillow.com/homes/TX_rb/15_p/
365,2079265891,"62 28th Ave, Brooklyn, NY 11214",40.589257,-73.985835,1799999,USD,5,1,2958.0 sqft,,,2129,0,,FALSE,https://photos.zillowstatic.com/fp/533a545ff244980d21562390e05bcc94-p_e.jpg,Multi-family home for sale,Listing by: Remax Edge,https://www.zillow.com/homes/NY_rb/,https://www.zillow.com/homedetails/62-28th-Ave-Brooklyn-NY-11214/2079265891_zpid/,https://www.zillow.com/homes/NY_rb/10_p/
64,86927378,"108 E Union St, Manchester, IA 52057",42.487856,-91.457191,150000,USD,2,4,2178.0 sqft,,159500,1359,0,,FALSE,https://photos.zillowstatic.com/fp/9e97bbf9c3348912517ad13e49dc9f70-p_e.jpg,House for sale,NORTHEAST Iowa Realty,https://www.zillow.com/homes/IA_rb/,https://www.zillow.com/homedetails/108-E-Union-St-Manchester-IA-52057/86927378_zpid/,https://www.zillow.com/homes/IA_rb/2_p/
518,61831244,"6880 Goodrich Rd, Clarence Center, NY 14032",43.035261,-78.637355,225000,USD,1,3,1144.0 sqft,,272900,1699,0,,FALSE,https://photos.zillowstatic.com/fp/7e090fa0e0bc9db48c0620b028587057-p_e.jpg,House for sale,Listing by: Hunt Real Estate ERA,https://www.zillow.com/homes/NY_rb/,https://www.zillow.com/homedetails/6880-Goodrich-Rd-Clarence-Center-NY-14032/61831244_zpid/,https://www.zillow.com/homes/NY_rb/13_p/
463,30495123,"2028 Route 23b, Catskill, NY 12482",42.268644,-73.940301,318000,USD,3,4,2432.0 sqft,,,2491,0,,FALSE,https://photos.zillowstatic.com/fp/5abf4d3c19ab0c63ce1497566833ac20-p_e.jpg,House for sale,Listing by: Coldwell Banker Advisor Realty,https://www.zillow.com/homes/NY_rb/,https://www.zillow.com/homedetails/2028-Route-23b-Catskill-NY-12482/30495123_zpid/,https://www.zillow.com/homes/NY_rb/12_p/
407,29782372,"1708 Undercliff Ave, Bronx, NY 10453",40.850252,-73.920741,745000,USD,2,5,3180.0 sqft,,,,0,,FALSE,https://photos.zillowstatic.com/fp/80671b1b8edec9996b23c19264049599-p_e.jpg,Multi-family home for sale,Listing by: Pantiga Group Inc.,https://www.zillow.com/homes/NY_rb/,https://www.zillow.com/homedetails/1708-Undercliff-Ave-Bronx-NY-10453/29782372_zpid/,https://www.zillow.com/homes/NY_rb/11_p/
103,31940015,"3253 35th St, Astoria, NY 11106",40.75901,-73.923035,2300000,USD,6,8,3360.0 sqft,,,2564,0,,FALSE,https://photos.zillowstatic.com/fp/4b081de565547f56df76342cd1675491-p_e.jpg,Multi-family home for sale,Listing by: Richmont Realty LLC,https://www.zillow.com/homes/NY_rb/,https://www.zillow.com/homedetails/3253-35th-St-Astoria-NY-11106/31940015_zpid/,https://www.zillow.com/homes/NY_rb/3_p/
506,28092335,"24 Farnham Park Dr, Houston, TX 77024",29.749827,-95.507674,7500000,USD,10,5,15021.0 sqft,,4412800,27106,0,,FALSE,https://photos.zillowstatic.com/fp/fa66d3eb86b661700a405a5b6566ab51-p_e.jpg,House for sale,Martha Turner Sotheby's,https://www.zillow.com/homes/TX_rb/,https://www.zillow.com/homedetails/24-Farnham-Park-Dr-Houston-TX-77024/28092335_zpid/,https://www.zillow.com/homes/TX_rb/13_p/
437,86893099,"930 230th St, Tipton, IA 52772",41.756855,-91.185317,575000,USD,4,5,2839.0 sqft,,557300,2323,2,,FALSE,https://photos.zillowstatic.com/fp/f796ebceca1630f6ae5d61d60c758e5e-p_e.jpg,House for sale,,https://www.zillow.com/homes/IA_rb/,https://www.zillow.com/homedetails/930-230th-St-Tipton-IA-52772/86893099_zpid/,https://www.zillow.com/homes/IA_rb/11_p/
654,244520352,"4703 161st Ct, Urbandale, IA 50323",41.646651,-93.839939,805000,USD,4,4,3000.0 sqft,,,,2,,FALSE,https://photos.zillowstatic.com/fp/6e3686657a030305217129fde5d21d25-p_e.jpg,New construction,RE/MAX Precision,https://www.zillow.com/homes/IA_rb/,https://www.zillow.com/homedetails/4703-161st-Ct-Urbandale-IA-50323/244520352_zpid/,https://www.zillow.com/homes/IA_rb/17_p/
194,27572247,"1822 Lakebend Dr, Sugar Land, TX 77478",29.611145,-95.605631,524990,USD,4,5,3696.0 sqft,,427900,3413,0,,FALSE,https://photos.zillowstatic.com/fp/b4585d2a336c0436c572a78dd8d10b47-p_e.jpg,House for sale,RE/MAX Southwest,https://www.zillow.com/homes/TX_rb/,https://www.zillow.com/homedetails/1822-Lakebend-Dr-Sugar-Land-TX-77478/27572247_zpid/,https://www.zillow.com/homes/TX_rb/5_p/
37,53119857,"11066 Clearstream Ln, Frisco, TX 75035",33.131496,-96.783662,429900,USD,2,4,2169.0 sqft,,410300,2574,0,,FALSE,https://photos.zillowstatic.com/fp/5340db52e9b4ecc844c91f8fc1408f12-p_e.jpg,House for sale,,https://www.zillow.com/homes/TX_rb/,https://www.zillow.com/homedetails/11066-Clearstream-Ln-Frisco-TX-75035/53119857_zpid/,https://www.zillow.com/homes/TX_rb/
325,250533901,"4575 County Road 344, Early, TX 76802",31.772342,-98.918013,16000,USD,,,,1 acres,,,0,,FALSE,https://photos.zillowstatic.com/fp/a44f8acd508ffa433907fdb4a3cd5ab3-p_e.jpg,Lot / Land for sale,,https://www.zillow.com/homes/TX_rb/,https://www.zillow.com/homedetails/4575-County-Road-344-Early-TX-76802/250533901_zpid/,https://www.zillow.com/homes/TX_rb/9_p/
390,2067976400,"10217 Powell Ave, Johnston, IA 50131",,,348200,USD,3,3,1659.0 sqft,,,,1,,FALSE,https://photos.zillowstatic.com/fp/befc1d8d52e54099bcb2f02f6e566949-p_e.jpg,New construction,"EXP Realty, LLC",https://www.zillow.com/homes/IA_rb/,https://www.zillow.com/homedetails/10217-Powell-Ave-Johnston-IA-50131/2067976400_zpid/,https://www.zillow.com/homes/IA_rb/10_p/
723,97690135,"5109 Draper St, Fort Worth, TX 76105",32.720273,-97.245137,285000,USD,2,3,1679.0 sqft,,,1243,0,,FALSE,https://photos.zillowstatic.com/fp/f8a56314dbd0f049b1203d635f7c7fba-p_e.jpg,House for sale,,https://www.zillow.com/homes/TX_rb/,https://www.zillow.com/homedetails/5109-Draper-St-Fort-Worth-TX-76105/97690135_zpid/,https://www.zillow.com/homes/TX_rb/19_p/
223,32680384,"10 British Colony Rd, Northport, NY 11768",40.915018,-73.294924,1060000,USD,3,4,2570.0 sqft,,,3879,0,,FALSE,https://photos.zillowstatic.com/fp/25d85318c81d23bdddf2bed07d55e73c-p_e.jpg,House for sale,Listing by: Signature Premier Properties,https://www.zillow.com/homes/NY_rb/,https://www.zillow.com/homedetails/10-British-Colony-Rd-Northport-NY-11768/32680384_zpid/,https://www.zillow.com/homes/NY_rb/6_p/
554,26166464,"503 Blackjack Oak, Shavano Park, TX 78230",29.57625,-98.560971,1115000,USD,5,4,4911.0 sqft,,1045600,5730,0,,FALSE,https://photos.zillowstatic.com/fp/726a878b0b0d16c8e1a9904912aad438-p_e.jpg,House for sale,Keller Williams Boerne,https://www.zillow.com/homes/TX_rb/,https://www.zillow.com/homedetails/503-Blackjack-Oak-Shavano-Park-TX-78230/26166464_zpid/,https://www.zillow.com/homes/TX_rb/14_p/
559,31733661,"500 Church St, Solvay, NY 13209",43.090703,-76.242195,159900,USD,2,4,1368.0 sqft,,,,0,,FALSE,https://photos.zillowstatic.com/fp/468651bd896083ed3cb520f505179b1e-p_e.jpg,House for sale,Listing by: Howard Hanna Real Estate,https://www.zillow.com/homes/NY_rb/,https://www.zillow.com/homedetails/500-Church-St-Solvay-NY-13209/31733661_zpid/,https://www.zillow.com/homes/NY_rb/14_p/
316,31083974,"22 Roger Dr, Pt Washington, NY 11050",40.837566,-73.69189,1299000,USD,3,5,2750.0 sqft,,1107500,5828,0,,FALSE,https://photos.zillowstatic.com/fp/935d4ce37e546c23e05a43bfb92072dd-p_e.jpg,House for sale,Listing by: EXP Realty,https://www.zillow.com/homes/NY_rb/,https://www.zillow.com/homedetails/22-Roger-Dr-Pt-Washington-NY-11050/31083974_zpid/,https://www.zillow.com/homes/NY_rb/8_p/
137,119789460,"187 Sherwood Farms Rd, Omaha, TX 75571",33.212887,-94.758306,165000,USD,1,2,1117.0 sqft,,129700,524,0,,FALSE,https://photos.zillowstatic.com/fp/2e6c18832d68107575bfe6841a96c4a6-p_e.jpg,House for sale,"Patrick Redfearn Realty, LLC",https://www.zillow.com/homes/TX_rb/,https://www.zillow.com/homedetails/187-Sherwood-Farms-Rd-Omaha-TX-75571/119789460_zpid/,https://www.zillow.com/homes/TX_rb/4_p/
533,31136393,"2 Glenwood Rd, Plainview, NY 11803",40.792866,-73.48983,779000,USD,3,4,2180.0 sqft,,804300,4900,0,,FALSE,https://photos.zillowstatic.com/fp/ca475e05c4a38f2f4ed7f3e6db40332a-p_e.jpg,House for sale,Listing by: Realty Connect USA LLC,https://www.zillow.com/homes/NY_rb/,https://www.zillow.com/homedetails/2-Glenwood-Rd-Plainview-NY-11803/31136393_zpid/,https://www.zillow.com/homes/NY_rb/14_p/
161,27284609,"905 Silverthorne Trl, Highland Village, TX 75077",33.081966,-97.07442,475000,USD,4,4,3630.0 sqft,,,,0,,FALSE,https://photos.zillowstatic.com/fp/51ad52414ab11292a542257c0692d2bb-p_e.jpg,House for sale,,https://www.zillow.com/homes/TX_rb/,https://www.zillow.com/homedetails/905-Silverthorne-Trl-Highland-Village-TX-75077/27284609_zpid/,https://www.zillow.com/homes/TX_rb/5_p/
672,97614084,"4020 Courtney St, Houston, TX 77026",29.786761,-95.33025,60000,USD,,,,"5,001 sqft",,1228,0,,FALSE,"https://maps.googleapis.com/maps/api/staticmap?mobile=false&sensor=true&maptype=satellite&size=575x242&zoom=17&center=29.786761,-95.33025&key=AIzaSyBJsNQO5ZeG-XAbqqWLKwG08fWITSxg33w&signature=JLESagvUxLyt5tu6cH_HIoJroN0=",Lot / Land for sale,REALM Real Estate Professional,https://www.zillow.com/homes/TX_rb/,https://www.zillow.com/homedetails/4020-Courtney-St-Houston-TX-77026/97614084_zpid/,https://www.zillow.com/homes/TX_rb/17_p/
551,32799932,"26 Smullen Ave, Newark Valley, NY 13811",42.224022,-76.180831,195500,USD,2,5,2000.0 sqft,,195501,1347,0,,FALSE,https://photos.zillowstatic.com/fp/130bab0e7e4a60414ea62a7ea0684007-p_e.jpg,House for sale,Listing by: HOWARD HANNA,https://www.zillow.com/homes/NY_rb/,https://www.zillow.com/homedetails/26-Smullen-Ave-Newark-Valley-NY-13811/32799932_zpid/,https://www.zillow.com/homes/NY_rb/14_p/
211,333726807,"180 Aspen Dr, Norwalk, IA 50211",41.469023,-93.687694,45000,USD,,0,,"4,356 sqft",,,0,,FALSE,https://photos.zillowstatic.com/fp/f4893d4b95a3c8a40d3f50016dd6180b-p_e.jpg,Lot / Land for sale,RE/MAX Precision,https://www.zillow.com/homes/IA_rb/,https://www.zillow.com/homedetails/180-Aspen-Dr-Norwalk-IA-50211/333726807_zpid/,https://www.zillow.com/homes/IA_rb/6_p/
156,63228379,"17805 Ice Age Trails St, Pflugerville, TX 78660",30.464026,-97.619392,375000,USD,2,3,1378.0 sqft,,337700,1900,0,,FALSE,https://photos.zillowstatic.com/fp/c12f3bafaefb23816991ec6d59f01665-p_e.jpg,Active,eXp Realty LLC,https://www.zillow.com/homes/TX_rb/,https://www.zillow.com/homedetails/17805-Ice-Age-Trails-St-Pflugerville-TX-78660/63228379_zpid/,https://www.zillow.com/homes/TX_rb/4_p/
758,176798562,"5002 Isidore Ln, Missouri City, TX 77459",29.521569,-95.536495,644900,USD,5,5,3996.0 sqft,,572100,3482,0,,FALSE,https://photos.zillowstatic.com/fp/a9a86877c49f3708da98e32fc26ea5fa-p_e.jpg,House for sale,HomeSmart Fine Properties,https://www.zillow.com/homes/TX_rb/,https://www.zillow.com/homedetails/5002-Isidore-Ln-Missouri-City-TX-77459/176798562_zpid/,https://www.zillow.com/homes/TX_rb/19_p/
550,32572411,"7600 County Route 14, Bath, NY 14810",42.369046,-77.373143,228500,USD,2,3,2212.0 sqft,,,,0,,FALSE,https://photos.zillowstatic.com/fp/1f587dadb7868ab76790c56b69a1802a-p_e.jpg,House for sale,Listing by: Howard Hanna Lake Group Hammondsport,https://www.zillow.com/homes/NY_rb/,https://www.zillow.com/homedetails/7600-County-Route-14-Bath-NY-14810/32572411_zpid/,https://www.zillow.com/homes/NY_rb/14_p/
409,776600,"1241 E 23rd St, Des Moines, IA 50317",41.601996,-93.574099,159900,USD,1,3,816.0 sqft,,,,1,,FALSE,https://photos.zillowstatic.com/fp/8df0a48cc3caafd41c3036523d3dd8bf-p_e.jpg,House for sale,Realty ONE Group Impact,https://www.zillow.com/homes/IA_rb/,https://www.zillow.com/homedetails/1241-E-23rd-St-Des-Moines-IA-50317/776600_zpid/,https://www.zillow.com/homes/IA_rb/11_p/
158,250925802,"136 Flexus Ln, Liberty Hill, TX 78642",30.665001,-97.885519,430000,USD,3,4,2418.0 sqft,,,,0,,FALSE,https://photos.zillowstatic.com/fp/7d13445410fca5532c09b3bf20f8a8f5-p_e.jpg,Active,Keller Williams Realty,https://www.zillow.com/homes/TX_rb/,https://www.zillow.com/homedetails/136-Flexus-Ln-Liberty-Hill-TX-78642/250925802_zpid/,https://www.zillow.com/homes/TX_rb/4_p/
352,86986377,"1600 Southview Cir, Fairfield, IA 52556",40.990908,-91.975904,40710,USD,2,3,1848.0 sqft,,113500,931,1,,FALSE,https://photos.zillowstatic.com/fp/8168d24f07dfb2ec0cf1723464341ed6-p_e.jpg,House for sale,Ruhl & Ruhl Real Estate,https://www.zillow.com/homes/IA_rb/,https://www.zillow.com/homedetails/1600-Southview-Cir-Fairfield-IA-52556/86986377_zpid/,https://www.zillow.com/homes/IA_rb/9_p/
307,193943309,"2148 Fm 1208, Stanton, TX 79782",32.101027,-101.935486,150000,USD,,,,5 acres,,1090,0,,FALSE,https://photos.zillowstatic.com/fp/537e8cc56b48d6d3e8b08c254e323cf3-p_e.jpg,Lot / Land for sale,The Real Estate Ranch LLC,https://www.zillow.com/homes/TX_rb/,https://www.zillow.com/homedetails/2148-Fm-1208-Stanton-TX-79782/193943309_zpid/,https://www.zillow.com/homes/TX_rb/8_p/
514,2067962456,"340 Bird Ave #201, Buffalo, NY 14213",42.926203,-78.886258,355000,USD,2,2,1310.0 sqft,,,,0,,FALSE,https://photos.zillowstatic.com/fp/7f182ce7e72afe2fc772f59d7322697d-p_e.jpg,Condo for sale,Listing by: Hunt Real Estate ERA,https://www.zillow.com/homes/NY_rb/,https://www.zillow.com/homedetails/340-Bird-Ave-201-Buffalo-NY-14213/2067962456_zpid/,https://www.zillow.com/homes/NY_rb/13_p/
488,87096553,"1112 S Mill St, Decorah, IA 52101",43.291759,-91.791794,155800,USD,2,3,1396.0 sqft,,152200,959,2,,FALSE,https://photos.zillowstatic.com/fp/a4c597df28e259e01ffe2f3764d322db-p_e.jpg,House for sale,Kelly Real Estate Inc,https://www.zillow.com/homes/IA_rb/,https://www.zillow.com/homedetails/1112-S-Mill-St-Decorah-IA-52101/87096553_zpid/,https://www.zillow.com/homes/IA_rb/13_p/
648,851615,"4121 67th St, Urbandale, IA 50322",41.635808,-93.70828,215000,USD,1,3,912.0 sqft,,214700,1481,2,,FALSE,https://photos.zillowstatic.com/fp/0be9b95a1f9a353664d19cc153c01c77-p_e.jpg,House for sale,Friedrich Realty,https://www.zillow.com/homes/IA_rb/,https://www.zillow.com/homedetails/4121-67th-St-Urbandale-IA-50322/851615_zpid/,https://www.zillow.com/homes/IA_rb/17_p/
530,2067962684,"86 S Shore Rd #86, Cuba, NY 14727",42.237676,-78.306062,574900,USD,3,5,26.0 sqft,,,,0,,FALSE,https://photos.zillowstatic.com/fp/170113b80116b0fd1a9229e7b81ea27b-p_e.jpg,House for sale,Listing by: Homestar Realty,https://www.zillow.com/homes/NY_rb/,https://www.zillow.com/homedetails/86-S-Shore-Rd-86-Cuba-NY-14727/2067962684_zpid/,https://www.zillow.com/homes/NY_rb/14_p/
153,247355834,"1082 Adare Pass, Marion, IA 52302",42.074623,-91.621233,399950,USD,2,3,1752.0 sqft,,384000,1868,0,,FALSE,https://photos.zillowstatic.com/fp/ce47758383eae61d4c715e6dd6eb3c05-p_e.jpg,House for sale,COLDWELL BANKER HEDGES CORRIDOR,https://www.zillow.com/homes/IA_rb/,https://www.zillow.com/homedetails/1082-Adare-Pass-Marion-IA-52302/247355834_zpid/,https://www.zillow.com/homes/IA_rb/4_p/
142,247355693,"14 Red Maple Ct, Central City, IA 52214",42.210871,-91.523518,270000,USD,3,4,2335.0 sqft,,227400,1384,0,,FALSE,https://photos.zillowstatic.com/fp/9ddc2aab7d391e11177f4e3365eb6842-p_e.jpg,House for sale,Pinnacle Realty LLC,https://www.zillow.com/homes/IA_rb/,https://www.zillow.com/homedetails/14-Red-Maple-Ct-Central-City-IA-52214/247355693_zpid/,https://www.zillow.com/homes/IA_rb/4_p/
653,29887147,"823 Washington Ave, Dunkirk, NY 14048",42.472635,-79.332064,185000,USD,2,4,1758.0 sqft,,,,0,,FALSE,https://photos.zillowstatic.com/fp/a0bf711b0575a23b92404bb962140122-p_e.jpg,House for sale,Listing by: Premier Realty & Investments,https://www.zillow.com/homes/NY_rb/,https://www.zillow.com/homedetails/823-Washington-Ave-Dunkirk-NY-14048/29887147_zpid/,https://www.zillow.com/homes/NY_rb/17_p/
464,93946553,"527 Highview St, Nevada, IA 50201",42.016257,-93.459453,219900,USD,2,2,1398.0 sqft,,214800,1214,2,,FALSE,https://photos.zillowstatic.com/fp/9a01e1a9962141eb49b6d32802dd3698-p_e.jpg,House for sale,RE/MAX Real Estate Concepts,https://www.zillow.com/homes/IA_rb/,https://www.zillow.com/homedetails/527-Highview-St-Nevada-IA-50201/93946553_zpid/,https://www.zillow.com/homes/IA_rb/12_p/
228,30910539,"36 Autumn Chapel Way, Rochester, NY 14624",43.095387,-77.765907,94900,USD,2,2,1164.0 sqft,,74400,1564,0,,FALSE,https://photos.zillowstatic.com/fp/8db3047b573f450ad74e381de5091b9f-p_e.jpg,Townhouse for sale,"Listing by: eXp Realty, LLC",https://www.zillow.com/homes/NY_rb/,https://www.zillow.com/homedetails/36-Autumn-Chapel-Way-Rochester-NY-14624/30910539_zpid/,https://www.zillow.com/homes/NY_rb/6_p/
475,29536855,"1801 Holly Trl, Cedar Park, TX 78613",30.529561,-97.838759,350000,USD,2,3,1328.0 sqft,,309500,1800,0,,FALSE,https://photos.zillowstatic.com/fp/429464c69c4b1696ac825e24d197ccfa-p_e.jpg,Active,Atlas Realty,https://www.zillow.com/homes/TX_rb/,https://www.zillow.com/homedetails/1801-Holly-Trl-Cedar-Park-TX-78613/29536855_zpid/,https://www.zillow.com/homes/TX_rb/12_p/
491,94842477,"784 Mission Point Rd, Iowa City, IA 52245",41.681978,-91.550454,550000,USD,3,5,2592.0 sqft,,543300,2929,2,,FALSE,https://photos.zillowstatic.com/fp/6753705d8a6795ccf8c8a4755f1000a7-p_e.jpg,House for sale,,https://www.zillow.com/homes/IA_rb/,https://www.zillow.com/homedetails/784-Mission-Point-Rd-Iowa-City-IA-52245/94842477_zpid/,https://www.zillow.com/homes/IA_rb/13_p/
183,2078601568,"8302 Westown Pkwy UNIT 4110, West Des Moines, IA 50266",41.586791,-93.821059,138500,USD,2,2,1056.0 sqft,,240500,1205,0,,FALSE,https://photos.zillowstatic.com/fp/3e397879470d741c627b708dd8cc7f66-p_e.jpg,Townhouse for sale,RE/MAX Concepts,https://www.zillow.com/homes/IA_rb/,https://www.zillow.com/homedetails/8302-Westown-Pkwy-UNIT-4110-West-Des-Moines-IA-50266/2078601568_zpid/,https://www.zillow.com/homes/IA_rb/5_p/
107,32456613,"6 Canvasback Rdg, Waterford, NY 12188",42.814377,-73.713234,284900,USD,2,3,1484.0 sqft,,294600,1961,0,,FALSE,https://photos.zillowstatic.com/fp/c9023762f3b81f86fda4232ceb54c30d-p_e.jpg,House for sale,Listing by: Access Premier Properties.com,https://www.zillow.com/homes/NY_rb/,https://www.zillow.com/homedetails/6-Canvasback-Rdg-Waterford-NY-12188/32456613_zpid/,https://www.zillow.com/homes/NY_rb/3_p/
793,250484528,"403 Coneflower Ct, Monroe, IA 50170",41.514449,-93.107656,296000,USD,2,2,1390.0 sqft,,,1273,3,,FALSE,https://photos.zillowstatic.com/fp/392cf6dc4389a06fe64fcfa121d7b1c9-p_e.jpg,New construction,Home Realty,https://www.zillow.com/homes/IA_rb/,https://www.zillow.com/homedetails/403-Coneflower-Ct-Monroe-IA-50170/250484528_zpid/,https://www.zillow.com/homes/IA_rb/20_p/
530,87095833,"102 Center St, Decorah, IA 52101",43.304757,-91.79988,209500,USD,2,3,1208.0 sqft,,208300,784,2,,FALSE,https://photos.zillowstatic.com/fp/6065e8763b239eaa85bf4844468e3526-p_e.jpg,Coming soon,Kelly Real Estate Inc,https://www.zillow.com/homes/IA_rb/,https://www.zillow.com/homedetails/102-Center-St-Decorah-IA-52101/87095833_zpid/,https://www.zillow.com/homes/IA_rb/14_p/
795,93878026,"424 Johnson Street Rd, Keokuk, IA 52632",40.410863,-91.403864,69900,USD,2,2,1981.0 sqft,,66500,699,3,,FALSE,https://photos.zillowstatic.com/fp/46b2c77c6b6a8426c9acbe6a88c21231-p_e.jpg,House for sale,Century 21/Property Profession,https://www.zillow.com/homes/IA_rb/,https://www.zillow.com/homedetails/424-Johnson-Street-Rd-Keokuk-IA-52632/93878026_zpid/,https://www.zillow.com/homes/IA_rb/20_p/
340,303752368,"307 Road 5102, Cleveland, TX 77327",30.15771,-95.069961,225000,USD,2,4,1376.0 sqft,,236900,1583,0,,FALSE,https://photos.zillowstatic.com/fp/52a58cddb3bea530529eb56549828b10-p_e.jpg,House for sale,"Rick Lamar Real Estate, LLC",https://www.zillow.com/homes/TX_rb/,https://www.zillow.com/homedetails/307-Road-5102-Cleveland-TX-77327/303752368_zpid/,https://www.zillow.com/homes/TX_rb/9_p/
277,76742556,"715 Maben Ave, Garner, IA 50438",43.098497,-93.60038,172500,USD,3,4,1978.0 sqft,,96600,1034,1,,FALSE,https://photos.zillowstatic.com/fp/4a08bb2de28d6dd157440e6769ae7f5d-p_e.jpg,House for sale,"Schoneman, REALTORS",https://www.zillow.com/homes/IA_rb/,https://www.zillow.com/homedetails/715-Maben-Ave-Garner-IA-50438/76742556_zpid/,https://www.zillow.com/homes/IA_rb/7_p/
130,2067954641,"N Vaquero Dr, Blanco, TX 78606",30.076498,-98.435641,150000,USD,,0,,2.06 acres,,,0,,FALSE,https://photos.zillowstatic.com/fp/65e0958f931d4bc696c0c1257d781f8c-p_e.jpg,Active,"Audrey Pudder Realty, LLC",https://www.zillow.com/homes/TX_rb/,https://www.zillow.com/homedetails/N-Vaquero-Dr-Blanco-TX-78606/2067954641_zpid/,https://www.zillow.com/homes/TX_rb/4_p/
483,76745333,"1109 6th Ave N, Humboldt, IA 50548",42.727942,-94.225436,54500,USD,1,2,1241.0 sqft,,,,2,,FALSE,https://photos.zillowstatic.com/fp/16d44539a7bb2d5f8f0fd849cd96b4d2-p_e.jpg,House for sale,Humboldt Realty,https://www.zillow.com/homes/IA_rb/,https://www.zillow.com/homedetails/1109-6th-Ave-N-Humboldt-IA-50548/76745333_zpid/,https://www.zillow.com/homes/IA_rb/13_p/
391,2067976545,"10216 Powell Ave, Kellerton, IA 50133",,,365700,USD,2,3,1404.0 sqft,,,,1,,FALSE,https://photos.zillowstatic.com/fp/f2eea98d614da7296921d97686200b3c-p_e.jpg,New construction,"EXP Realty, LLC",https://www.zillow.com/homes/IA_rb/,https://www.zillow.com/homedetails/10216-Powell-Ave-Kellerton-IA-50133/2067976545_zpid/,https://www.zillow.com/homes/IA_rb/10_p/
323,2067958323,"83-05 98th St #6S, Woodhaven, NY 11421",40.699987,-73.852925,315000,USD,1,2,,,,,0,,FALSE,https://photos.zillowstatic.com/fp/160aff6e0ee50a8a795d9cf0136a82d2-p_e.jpg,Condo for sale,Listing by: Charles Rutenberg Realty Inc,https://www.zillow.com/homes/NY_rb/,https://www.zillow.com/homedetails/83-05-98th-St-6S-Woodhaven-NY-11421/2067958323_zpid/,https://www.zillow.com/homes/NY_rb/9_p/
434,97501398,"229 W 116th St APT 3A, New York, NY 10026",40.804087,-73.953832,949500,USD,1,2,885.0 sqft,,744600,3127,0,,FALSE,https://photos.zillowstatic.com/fp/907e53b3ba7831473060d6c48b1adb59-p_e.jpg,Condo for sale,"Listing by: Elegran, LLC",https://www.zillow.com/homes/NY_rb/,https://www.zillow.com/homedetails/229-W-116th-St-APT-3A-New-York-NY-10026/97501398_zpid/,https://www.zillow.com/homes/NY_rb/11_p/
757,2067994569,"8601 Westown Pkwy UNIT 31103, West Des Moines, IA 50266",41.588584,-93.827127,175000,USD,3,2,1310.0 sqft,,,,3,,FALSE,https://photos.zillowstatic.com/fp/d2407b172f172b3e73f853bff89d3848-p_e.jpg,Townhouse for sale,Iowa Realty Mills Crossing,https://www.zillow.com/homes/IA_rb/,https://www.zillow.com/homedetails/8601-Westown-Pkwy-UNIT-31103-West-Des-Moines-IA-50266/2067994569_zpid/,https://www.zillow.com/homes/IA_rb/19_p/
370,2067955605,"3609 Waterspring Way, El Paso, TX 79936",31.798721,-106.317404,90000,USD,1,3,903.0 sqft,,,,0,,FALSE,https://photos.zillowstatic.com/fp/094f9a8f9ae5da23079ad4d6b47d0309-p_e.jpg,House for sale,Mission Valley Realty LLC,https://www.zillow.com/homes/TX_rb/,https://www.zillow.com/homedetails/3609-Waterspring-Way-El-Paso-TX-79936/2067955605_zpid/,https://www.zillow.com/homes/TX_rb/10_p/
253,2067955017,"140 Star Ranch Dr, Whitney, TX 76692",31.96177,-97.369313,124000,USD,,,,2.48 acres,,,0,,FALSE,https://photos.zillowstatic.com/fp/f251bfbae66ae06d34535a6422b61bb6-p_e.jpg,Lot / Land for sale,,https://www.zillow.com/homes/TX_rb/,https://www.zillow.com/homedetails/140-Star-Ranch-Dr-Whitney-TX-76692/2067955017_zpid/,https://www.zillow.com/homes/TX_rb/7_p/
77,93961034,"712 Wilder Blvd, Ames, IA 50014",42.016139,-93.688625,315900,USD,4,4,1823.0 sqft,,315902,1626,0,,FALSE,https://photos.zillowstatic.com/fp/3ef61c51e817e955ee0972837bd52ed5-p_e.jpg,House for sale,,https://www.zillow.com/homes/IA_rb/,https://www.zillow.com/homedetails/712-Wilder-Blvd-Ames-IA-50014/93961034_zpid/,https://www.zillow.com/homes/IA_rb/2_p/
703,821714,"4501 NE 88th St, Altoona, IA 50009",41.642381,-93.425118,365000,USD,2,4,1076.0 sqft,,357100,1300,3,,FALSE,https://photos.zillowstatic.com/fp/d8919322335bfbb81ee9a2e4060088fa-p_e.jpg,House for sale,Platinum Realty LLC,https://www.zillow.com/homes/IA_rb/,https://www.zillow.com/homedetails/4501-NE-88th-St-Altoona-IA-50009/821714_zpid/,https://www.zillow.com/homes/IA_rb/18_p/
267,76679883,"302 2nd St SW, Waverly, IA 50677",42.723623,-92.473518,139900,USD,1,2,1455.0 sqft,,139000,749,1,,FALSE,https://photos.zillowstatic.com/fp/89c12fa99ad62ca3353a9585b59e2cb4-p_e.jpg,Coming soon,Amy Wienands Real Estate,https://www.zillow.com/homes/IA_rb/,https://www.zillow.com/homedetails/302-2nd-St-SW-Waverly-IA-50677/76679883_zpid/,https://www.zillow.com/homes/IA_rb/7_p/
69,84101495,"5170 W Seneca St #SS, Vernon, NY 13476",43.07734,-75.545099,259900,USD,,,4766.0 sqft,,,,0,,FALSE,https://photos.zillowstatic.com/fp/1c6686bed45477c43150def4c3a0906a-p_e.jpg,House for sale,Listing by: Berkshire Hathaway CNY Realty,https://www.zillow.com/homes/NY_rb/,https://www.zillow.com/homedetails/5170-W-Seneca-St-SS-Vernon-NY-13476/84101495_zpid/,https://www.zillow.com/homes/NY_rb/2_p/
352,83042401,"11 Terrace Pl APT 2E, Brooklyn, NY 11218",40.653686,-73.981142,695000,USD,1,1,726.0 sqft,,662000,2100,0,,FALSE,https://photos.zillowstatic.com/fp/b79271fa955f002197695ccd442d4d04-p_e.jpg,Condo for sale,Listing by: Compass,https://www.zillow.com/homes/NY_rb/,https://www.zillow.com/homedetails/11-Terrace-Pl-APT-2E-Brooklyn-NY-11218/83042401_zpid/,https://www.zillow.com/homes/NY_rb/9_p/
762,2067994831,"10517 Powell Ave, Johnston, IA 50131",41.68423,-93.76278,384990,USD,3,4,2053.0 sqft,,,,3,,FALSE,https://photos.zillowstatic.com/fp/35bca4a5a6bf5111762c250093cbf81b-p_e.jpg,New construction,"DRH Realty of Iowa, LLC",https://www.zillow.com/homes/IA_rb/,https://www.zillow.com/homedetails/10517-Powell-Ave-Johnston-IA-50131/2067994831_zpid/,https://www.zillow.com/homes/IA_rb/20_p/
284,73070859,"422 8th Ave SW, Cedar Rapids, IA 52404",41.968634,-91.675603,109900,USD,2,3,1188.0 sqft,,128000,1145,1,,FALSE,https://photos.zillowstatic.com/fp/52a0e2e50ef3686a0914340a1a342537-p_e.jpg,House for sale,,https://www.zillow.com/homes/IA_rb/,https://www.zillow.com/homedetails/422-8th-Ave-SW-Cedar-Rapids-IA-52404/73070859_zpid/,https://www.zillow.com/homes/IA_rb/8_p/
666,31596673,"2 Croft Rd, New Hartford, NY 13413",43.06502,-75.282601,184900,USD,1,3,912.0 sqft,,167000,1234,0,,FALSE,https://photos.zillowstatic.com/fp/e2404a0277c4055912e82a4a1c6036ce-p_e.jpg,House for sale,Listing by: MOHAWK VALLEY 1ST CHOICE REALTY LLC,https://www.zillow.com/homes/NY_rb/,https://www.zillow.com/homedetails/2-Croft-Rd-New-Hartford-NY-13413/31596673_zpid/,https://www.zillow.com/homes/NY_rb/17_p/
800,320252196,"511 Lafayette Ave #4B, Brooklyn, NY 11205",40.689634,-73.954622,625000,USD,1,1,588.0 sqft,,615310,2610,0,,FALSE,https://photos.zillowstatic.com/fp/bbf3a1711b207b6913b666a6b57efaae-p_e.jpg,Condo for sale,Listing by: Compass,https://www.zillow.com/homes/NY_rb/,https://www.zillow.com/homedetails/511-Lafayette-Ave-4B-Brooklyn-NY-11205/320252196_zpid/,https://www.zillow.com/homes/NY_rb/20_p/
256,59325957,"14 Maple St, Centereach, NY 11720",40.868881,-73.102619,449000,USD,1,3,1674.0 sqft,,415600,3211,0,,FALSE,https://photos.zillowstatic.com/fp/5813d34360e098831d78e29fbb3b1add-p_e.jpg,House for sale,Listing by: Homelister Inc,https://www.zillow.com/homes/NY_rb/,https://www.zillow.com/homedetails/14-Maple-St-Centereach-NY-11720/59325957_zpid/,https://www.zillow.com/homes/NY_rb/7_p/
227,325826982,"7294 County Road 314 S, Henderson, TX 75667",32.065489,-94.787646,919000,USD,4,5,3676.0 sqft,,501900,3419,0,,FALSE,https://photos.zillowstatic.com/fp/333398c9cecb038fba86d96cc582c864-p_e.jpg,House for sale,COLDWELL BANKER HOME PLACE - CARTHAGE,https://www.zillow.com/homes/TX_rb/,https://www.zillow.com/homedetails/7294-County-Road-314-S-Henderson-TX-75667/325826982_zpid/,https://www.zillow.com/homes/TX_rb/6_p/
526,2067962655,"141-21 72nd Dr, Flushing, NY 11367",40.72514,-73.822621,935000,USD,4,4,,,,,0,,FALSE,https://photos.zillowstatic.com/fp/5570f519b749208a5614ee45ebe0e133-p_e.jpg,House for sale,Listing by: Astor Brokerage Ltd,https://www.zillow.com/homes/NY_rb/,https://www.zillow.com/homedetails/141-21-72nd-Dr-Flushing-NY-11367/2067962655_zpid/,https://www.zillow.com/homes/NY_rb/14_p/
771,2067962898,"94A Enfield Ct #94-A, Ridge, NY 11961",40.918721,-72.895063,374900,USD,2,2,1746.0 sqft,,,,0,,FALSE,https://photos.zillowstatic.com/fp/60d751990e152900454d830b3ae34555-p_e.jpg,Condo for sale,Listing by: Meridian Commercial Mgmt Inc,https://www.zillow.com/homes/NY_rb/,https://www.zillow.com/homedetails/94A-Enfield-Ct-94-A-Ridge-NY-11961/2067962898_zpid/,https://www.zillow.com/homes/NY_rb/20_p/
682,76759833,"1522 Spruce St, Iowa City, IA 52240",41.642944,-91.511943,210000,USD,1,3,864.0 sqft,,168300,1140,3,,FALSE,https://photos.zillowstatic.com/fp/023ab121197dce03fea8d4b59ef0a54a-p_e.jpg,House for sale,,https://www.zillow.com/homes/IA_rb/,https://www.zillow.com/homedetails/1522-Spruce-St-Iowa-City-IA-52240/76759833_zpid/,https://www.zillow.com/homes/IA_rb/18_p/
223,64739987,"1806 S 2nd St, Austin, TX 78704",30.24756,-97.75822,999990,USD,,,1664.0 sqft,,,1597,0,,FALSE,https://photos.zillowstatic.com/fp/73273f0bdd4439da7fe754c46c255932-p_e.jpg,Active,"Grassroots Realty, LLC.",https://www.zillow.com/homes/TX_rb/,https://www.zillow.com/homedetails/1806-S-2nd-St-Austin-TX-78704/64739987_zpid/,https://www.zillow.com/homes/TX_rb/6_p/
596,29386076,"1135 1/2 Poquito St, Austin, TX 78702",30.268151,-97.716871,699000,USD,,0,,"8,276 sqft",,,0,,FALSE,https://photos.zillowstatic.com/fp/9d53cb0749894954b4a437e55da76118-p_e.jpg,Active,"Rosenthal Realty Services, LLC",https://www.zillow.com/homes/TX_rb/,https://www.zillow.com/homedetails/1135-1-2-Poquito-St-Austin-TX-78702/29386076_zpid/,https://www.zillow.com/homes/TX_rb/15_p/
758,779738,"1221 E 27th Ct, Des Moines, IA 50317",41.601259,-93.563469,90000,USD,1,2,576.0 sqft,,,,3,,FALSE,https://photos.zillowstatic.com/fp/fb838918a01204b1b21ba00d256f6f64-p_e.jpg,House for sale,Coldwell Banker Mid America,https://www.zillow.com/homes/IA_rb/,https://www.zillow.com/homedetails/1221-E-27th-Ct-Des-Moines-IA-50317/779738_zpid/,https://www.zillow.com/homes/IA_rb/19_p/
648,32322912,"89 Duer Ave, Staten Island, NY 10305",40.600245,-74.063273,729999,USD,4,3,1470.0 sqft,,657500,1917,0,,FALSE,https://photos.zillowstatic.com/fp/1e9847d8216e9bb3e86871ebfc777164-p_e.jpg,New construction,"Listing by: Robert DeFalco Realty, Inc.",https://www.zillow.com/homes/NY_rb/,https://www.zillow.com/homedetails/89-Duer-Ave-Staten-Island-NY-10305/32322912_zpid/,https://www.zillow.com/homes/NY_rb/17_p/
67,83937270,"220 W 93rd St APT 9A, New York, NY 10025",40.792376,-73.972941,2600000,USD,3,3,1797.0 sqft,,2131700,11348,0,,FALSE,https://photos.zillowstatic.com/fp/093411ff81a9ab581bc1532f034f7379-p_e.jpg,Condo for sale,Listing by: Douglas Elliman,https://www.zillow.com/homes/NY_rb/,https://www.zillow.com/homedetails/220-W-93rd-St-APT-9A-New-York-NY-10025/83937270_zpid/,https://www.zillow.com/homes/NY_rb/2_p/
291,76864128,"3792 Cedarwood Ct, Bettendorf, IA 52722",41.560309,-90.485293,165000,USD,3,2,1373.0 sqft,,161900,1099,1,,FALSE,https://photos.zillowstatic.com/fp/8f30d2c792e7964369964b615c9ace59-p_e.jpg,Condo for sale,Mel Foster Co. Moline,https://www.zillow.com/homes/IA_rb/,https://www.zillow.com/homedetails/3792-Cedarwood-Ct-Bettendorf-IA-52722/76864128_zpid/,https://www.zillow.com/homes/IA_rb/8_p/
395,26608786,"5610 Twin Brooks Dr, Dallas, TX 75252",32.995868,-96.808674,799000,USD,4,4,3121.0 sqft,,,,0,,FALSE,https://photos.zillowstatic.com/fp/859cb6ede5ef78e625639846714f6c2d-p_e.jpg,House for sale,,https://www.zillow.com/homes/TX_rb/,https://www.zillow.com/homedetails/5610-Twin-Brooks-Dr-Dallas-TX-75252/26608786_zpid/,https://www.zillow.com/homes/TX_rb/10_p/
226,79905745,"60 Kramer Ln, Sanger, TX 76266",33.364434,-97.160455,349900,USD,2,3,2214.0 sqft,,321800,2114,0,,FALSE,https://photos.zillowstatic.com/fp/61d0d1489e63f93b048cb4c16752c675-p_e.jpg,House for sale,,https://www.zillow.com/homes/TX_rb/,https://www.zillow.com/homedetails/60-Kramer-Ln-Sanger-TX-76266/79905745_zpid/,https://www.zillow.com/homes/TX_rb/6_p/
402,122504461,"2506 Haven Hill Dr, Katy, TX 77494",29.755923,-95.845444,635000,USD,5,4,4370.0 sqft,,603300,3617,0,,FALSE,https://photos.zillowstatic.com/fp/7612de61f367fdf0dccbe1d4b805fcc8-p_e.jpg,House for sale,Del Monte Realty,https://www.zillow.com/homes/TX_rb/,https://www.zillow.com/homedetails/2506-Haven-Hill-Dr-Katy-TX-77494/122504461_zpid/,https://www.zillow.com/homes/TX_rb/11_p/
360,53430433,"6 Darby Rd, Airmont, NY 10952",41.096375,-74.075043,799000,USD,3,5,2240.0 sqft,,,,0,,FALSE,https://photos.zillowstatic.com/fp/7764afeb1584b5d8a6116b6758872130-p_e.jpg,House for sale,"Listing by: eRealty Advisors, Inc",https://www.zillow.com/homes/NY_rb/,https://www.zillow.com/homedetails/6-Darby-Rd-Airmont-NY-10952/53430433_zpid/,https://www.zillow.com/homes/NY_rb/9_p/
610,2067963269,"91 Duer Ave, Staten Island, NY 10305",40.59991,-74.06334,729999,USD,4,3,1470.0 sqft,,,,0,,FALSE,https://photos.zillowstatic.com/fp/1e9847d8216e9bb3e86871ebfc777164-p_e.jpg,New construction,"Listing by: Robert DeFalco Realty, Inc.",https://www.zillow.com/homes/NY_rb/,https://www.zillow.com/homedetails/91-Duer-Ave-Staten-Island-NY-10305/2067963269_zpid/,https://www.zillow.com/homes/NY_rb/16_p/
778,245067224,"30 Bay 29th St APT 2D, Brooklyn, NY 11214",40.60184,-73.995529,438000,USD,1,2,1064.0 sqft,,409000,1849,0,,FALSE,https://photos.zillowstatic.com/fp/84ea75ec260f221912002e05daf0d3a7-p_e.jpg,Condo for sale,Listing by: Momentum Real Estate LLC,https://www.zillow.com/homes/NY_rb/,https://www.zillow.com/homedetails/30-Bay-29th-St-APT-2D-Brooklyn-NY-11214/245067224_zpid/,https://www.zillow.com/homes/NY_rb/20_p/
532,32501536,"142 Dahlia St, Schenectady, NY 12306",42.775307,-73.978344,235000,USD,1,3,1600.0 sqft,,257200,1822,0,,FALSE,https://photos.zillowstatic.com/fp/75ea61896e0de17e69359847653f05fb-p_e.jpg,House for sale,Listing by: Miuccio Real Estate Group,https://www.zillow.com/homes/NY_rb/,https://www.zillow.com/homedetails/142-Dahlia-St-Schenectady-NY-12306/32501536_zpid/,https://www.zillow.com/homes/NY_rb/14_p/
565,86973610,"403 Hampton Dr, Williamsburg, IA 52361",41.664449,-92.022277,269900,USD,4,4,2507.0 sqft,,263800,1649,2,,FALSE,https://photos.zillowstatic.com/fp/a5b4a1e7ecb771c56f24498496bb2520-p_e.jpg,House for sale,,https://www.zillow.com/homes/IA_rb/,https://www.zillow.com/homedetails/403-Hampton-Dr-Williamsburg-IA-52361/86973610_zpid/,https://www.zillow.com/homes/IA_rb/15_p/
495,30671437,"104 E 3rd St, Brooklyn, NY 11218",40.649615,-73.978877,2248000,USD,3,4,2342.0 sqft,,2202370,3405,0,,FALSE,https://photos.zillowstatic.com/fp/c26c79da9ce18bc65ca57abe47937147-p_e.jpg,Multi-family home for sale,Listing by: Prominent Properties Sotheby's International Realty,https://www.zillow.com/homes/NY_rb/,https://www.zillow.com/homedetails/104-E-3rd-St-Brooklyn-NY-11218/30671437_zpid/,https://www.zillow.com/homes/NY_rb/13_p/
586,245045102,"28 Old Fulton St #TOWNHOUSE G, Brooklyn, NY 11201",40.702614,-73.993674,1650000,USD,2,2,2700.0 sqft,,,8717,0,,FALSE,https://photos.zillowstatic.com/fp/3bd0a2dbf4a123439db2028245d87867-p_e.jpg,Condo for sale,Listing by: Compass,https://www.zillow.com/homes/NY_rb/,https://www.zillow.com/homedetails/28-Old-Fulton-St-TOWNHOUSE-G-Brooklyn-NY-11201/245045102_zpid/,https://www.zillow.com/homes/NY_rb/15_p/
266,26807868,"3208 Timberview Rd, Dallas, TX 75229",32.88353,-96.868599,510000,USD,3,4,2281.0 sqft,,,,0,,FALSE,"https://maps.googleapis.com/maps/api/staticmap?mobile=false&sensor=true&maptype=satellite&size=575x242&zoom=17&center=32.88353,-96.868599&key=AIzaSyBJsNQO5ZeG-XAbqqWLKwG08fWITSxg33w&signature=OYlfT2_VEcoImao3Vmyjfzlf3n8=",House for sale,,https://www.zillow.com/homes/TX_rb/,https://www.zillow.com/homedetails/3208-Timberview-Rd-Dallas-TX-75229/26807868_zpid/,https://www.zillow.com/homes/TX_rb/7_p/
533,26780408,"3135 Larkspur Ln, Dallas, TX 75233",32.697338,-96.87239,230000,USD,1,3,1230.0 sqft,,210800,1527,0,,FALSE,https://photos.zillowstatic.com/fp/4f8e5e55f73aaf9368fef384e457e897-p_e.jpg,House for sale,,https://www.zillow.com/homes/TX_rb/,https://www.zillow.com/homedetails/3135-Larkspur-Ln-Dallas-TX-75233/26780408_zpid/,https://www.zillow.com/homes/TX_rb/14_p/
271,29746919,"3144 State Route 26, Glen Aubrey, NY 13777",42.219614,-76.025329,245000,USD,2,3,1892.0 sqft,,178700,1138,0,,FALSE,https://photos.zillowstatic.com/fp/fdb1a9f564a0af814d9f8023cb8ed385-p_e.jpg,House for sale,Listing by: HOWARD HANNA,https://www.zillow.com/homes/NY_rb/,https://www.zillow.com/homedetails/3144-State-Route-26-Glen-Aubrey-NY-13777/29746919_zpid/,https://www.zillow.com/homes/NY_rb/7_p/
645,32562160,"29 Saint Lawrence Ave, Waddington, NY 13694",44.861125,-75.216954,430000,USD,3,2,2428.0 sqft,,404187,2618,0,,FALSE,https://photos.zillowstatic.com/fp/1fe0fef814e2dde21f91e118873a5843-p_e.jpg,House for sale,"Listing by: T.L.C. Real Estate, LLC",https://www.zillow.com/homes/NY_rb/,https://www.zillow.com/homedetails/29-Saint-Lawrence-Ave-Waddington-NY-13694/32562160_zpid/,https://www.zillow.com/homes/NY_rb/17_p/
674,70311366,"11515 Timberly Park Ln, Cypress, TX 77433",29.945901,-95.715541,394900,USD,4,5,2954.0 sqft,,350700,2327,0,,FALSE,https://photos.zillowstatic.com/fp/e0e3d7846fe9fba328da300ca4386c50-p_e.jpg,House for sale,"eXp Realty, LLC",https://www.zillow.com/homes/TX_rb/,https://www.zillow.com/homedetails/11515-Timberly-Park-Ln-Cypress-TX-77433/70311366_zpid/,https://www.zillow.com/homes/TX_rb/17_p/
238,73098227,"2725 3rd Ave, Marion, IA 52302",42.02957,-91.582389,188000,USD,2,3,1307.0 sqft,,175500,1249,1,,FALSE,https://photos.zillowstatic.com/fp/911529ce7eb2f8148b0151744c14521c-p_e.jpg,House for sale,COLDWELL BANKER HEDGES,https://www.zillow.com/homes/IA_rb/,https://www.zillow.com/homedetails/2725-3rd-Ave-Marion-IA-52302/73098227_zpid/,https://www.zillow.com/homes/IA_rb/6_p/
739,2067957449,"San Antonio Plan, Cuatro Vientos Sur",27.458444,-99.458831,289691,USD,3,4,2167.0 sqft,,,,0,,FALSE,https://photos.zillowstatic.com/fp/502c6cf545bb891072b6d1d401f05ad6-p_e.jpg,New construction,,https://www.zillow.com/homes/TX_rb/,https://www.zillow.com/community/cuatro-vientos-sur/2067957449_zpid/,https://www.zillow.com/homes/TX_rb/19_p/
424,30960683,"40 Sussex Rd, Rochester, NY 14623",43.073778,-77.589253,177499,USD,2,3,1585.0 sqft,,,,0,,FALSE,https://photos.zillowstatic.com/fp/5a9b3d4d3eda03b400040f715adbf09b-p_e.jpg,House for sale,Listing by: Howard Hanna,https://www.zillow.com/homes/NY_rb/,https://www.zillow.com/homedetails/40-Sussex-Rd-Rochester-NY-14623/30960683_zpid/,https://www.zillow.com/homes/NY_rb/11_p/
96,31897398,"5212 Deyo Dr, Honeoye, NY 14471",42.770552,-77.501495,259900,USD,1,2,776.0 sqft,,,,0,,FALSE,https://photos.zillowstatic.com/fp/b4ed98a98fc1dcbf9e87f9322bde652a-p_e.jpg,House for sale,Listing by: RE/MAX Integrity,https://www.zillow.com/homes/NY_rb/,https://www.zillow.com/homedetails/5212-Deyo-Dr-Honeoye-NY-14471/31897398_zpid/,https://www.zillow.com/homes/NY_rb/3_p/
637,61663547,"609 Carol Ln, Minburn, IA 50167",41.759055,-94.030569,69900,USD,2,3,1200.0 sqft,,,,2,,FALSE,https://photos.zillowstatic.com/fp/2c12e5c256e082be9693f5662eb26c4f-p_e.jpg,Home for sale,Keller Williams Realty GDM,https://www.zillow.com/homes/IA_rb/,https://www.zillow.com/homedetails/609-Carol-Ln-Minburn-IA-50167/61663547_zpid/,https://www.zillow.com/homes/IA_rb/16_p/
745,76772240,"2892 Coral Ct APT 304, Coralville, IA 52241",41.704977,-91.612684,125000,USD,2,2,972.0 sqft,,123500,999,3,,FALSE,https://photos.zillowstatic.com/fp/9f91bad34deda5879a265430cab89155-p_e.jpg,House for sale,,https://www.zillow.com/homes/IA_rb/,https://www.zillow.com/homedetails/2892-Coral-Ct-APT-304-Coralville-IA-52241/76772240_zpid/,https://www.zillow.com/homes/IA_rb/19_p/
243,69638924,"6506 Arrid Pass, San Antonio, TX 78238",29.479094,-98.617009,209000,USD,3,4,1343.0 sqft,,201100,1550,0,,FALSE,https://photos.zillowstatic.com/fp/3d37367477c2b96493d969e5836935df-p_e.jpg,House for sale,"Brothers Group, Inc.",https://www.zillow.com/homes/TX_rb/,https://www.zillow.com/homedetails/6506-Arrid-Pass-San-Antonio-TX-78238/69638924_zpid/,https://www.zillow.com/homes/TX_rb/7_p/
454,27019708,"714 Pebblecreek Dr, Garland, TX 75040",32.940717,-96.637459,264500,USD,2,3,2074.0 sqft,,,,0,,FALSE,https://photos.zillowstatic.com/fp/0afe7e677beb6d87a6bee6b6b6d93efb-p_e.jpg,House for sale,,https://www.zillow.com/homes/TX_rb/,https://www.zillow.com/homedetails/714-Pebblecreek-Dr-Garland-TX-75040/27019708_zpid/,https://www.zillow.com/homes/TX_rb/12_p/
66,76873457,"1014 3rd St, Princeton, IA 52768",41.667665,-90.342941,284900,USD,3,3,1980.0 sqft,,234100,2135,0,,FALSE,https://photos.zillowstatic.com/fp/790478ef0b6e264b923b8a29b9108a1e-p_e.jpg,House for sale,Navigate Realty,https://www.zillow.com/homes/IA_rb/,https://www.zillow.com/homedetails/1014-3rd-St-Princeton-IA-52768/76873457_zpid/,https://www.zillow.com/homes/IA_rb/2_p/
197,30282818,"618 Mount Vernon Rd, Cheektowaga, NY 14215",42.948097,-78.786501,239900,USD,2,4,2145.0 sqft,,216700,1457,0,,FALSE,https://photos.zillowstatic.com/fp/d7aa569ab0231c5b1eb2e074afe1043e-p_e.jpg,House for sale,Listing by: Pilgrim Properties LLC,https://www.zillow.com/homes/NY_rb/,https://www.zillow.com/homedetails/618-Mount-Vernon-Rd-Cheektowaga-NY-14215/30282818_zpid/,https://www.zillow.com/homes/NY_rb/5_p/
189,84090036,"515 NW Country Club Ln, Ankeny, IA 50023",41.735798,-93.644364,395900,USD,3,2,1789.0 sqft,,386100,1481,0,,FALSE,https://photos.zillowstatic.com/fp/7feddf21240b11e3e33a9c80114f1e72-p_e.jpg,Townhouse for sale,RE/MAX Concepts,https://www.zillow.com/homes/IA_rb/,https://www.zillow.com/homedetails/515-NW-Country-Club-Ln-Ankeny-IA-50023/84090036_zpid/,https://www.zillow.com/homes/IA_rb/5_p/
566,2088282154,"6822 Dominic Vly, San Antonio, TX 78242",29.3657,-98.6182,215000,USD,2,4,1602.0 sqft,,245400,1602,0,,FALSE,https://photos.zillowstatic.com/fp/7f89e549e420d1c5c59dff7a52ee7ed5-p_e.jpg,House for sale,Watters International Realty,https://www.zillow.com/homes/TX_rb/,https://www.zillow.com/homedetails/6822-Dominic-Vly-San-Antonio-TX-78242/2088282154_zpid/,https://www.zillow.com/homes/TX_rb/15_p/
337,63414625,"4313 Highgate Rd, Fort Worth, TX 76244",32.964928,-97.267646,360000,USD,2,3,2113.0 sqft,,324300,2197,0,,FALSE,https://photos.zillowstatic.com/fp/2502bb57cd3968ce767edd1a747eafcd-p_e.jpg,House for sale,,https://www.zillow.com/homes/TX_rb/,https://www.zillow.com/homedetails/4313-Highgate-Rd-Fort-Worth-TX-76244/63414625_zpid/,https://www.zillow.com/homes/TX_rb/9_p/
200,219869255,"18-55 Corporal Kennedy St APT 1D, Bayside, NY 11360",40.779786,-73.783275,375000,USD,1,2,1100.0 sqft,,,,0,,FALSE,https://photos.zillowstatic.com/fp/da0f3eb7b9393d1027a2bcc074d4e1b7-p_e.jpg,Condo for sale,Listing by: Weichert Realtors,https://www.zillow.com/homes/NY_rb/,https://www.zillow.com/homedetails/18-55-Corporal-Kennedy-St-APT-1D-Bayside-NY-11360/219869255_zpid/,https://www.zillow.com/homes/NY_rb/5_p/
656,2075590305,"3510 Avenue H APT 6B, Brooklyn, NY 11210",40.6315,-73.943298,348000,USD,1,2,971.0 sqft,,335100,1999,0,,FALSE,https://photos.zillowstatic.com/fp/7518648b84f65f627fae1b47fa960660-p_e.jpg,Condo for sale,Listing by: RE/MAX Edge,https://www.zillow.com/homes/NY_rb/,https://www.zillow.com/homedetails/3510-Avenue-H-APT-6B-Brooklyn-NY-11210/2075590305_zpid/,https://www.zillow.com/homes/NY_rb/17_p/
433,86907186,"1716 S Wilson Ave, Mason City, IA 50401",43.135869,-93.242224,84500,USD,1,3,1589.0 sqft,,93400,1069,2,,FALSE,https://photos.zillowstatic.com/fp/1b3696303fb7be0a50ddce08945d2f78-p_e.jpg,House for sale,Century 21 Preferred,https://www.zillow.com/homes/IA_rb/,https://www.zillow.com/homedetails/1716-S-Wilson-Ave-Mason-City-IA-50401/86907186_zpid/,https://www.zillow.com/homes/IA_rb/11_p/
433,79722090,"204 Montrose Ave #1R, Brooklyn, NY 11206",40.707385,-73.941156,999999,USD,1,1,1300.0 sqft,,918400,3099,0,,FALSE,https://photos.zillowstatic.com/fp/d2c26441cd42be53d82b2527c0f212d7-p_e.jpg,Condo for sale,Listing by: Corcoran,https://www.zillow.com/homes/NY_rb/,https://www.zillow.com/homedetails/204-Montrose-Ave-1R-Brooklyn-NY-11206/79722090_zpid/,https://www.zillow.com/homes/NY_rb/11_p/
181,2067956607,"69 Mac Dougal St, Brooklyn, NY 11233",40.679456,-73.919543,719000,USD,2,3,,,,,0,,FALSE,https://photos.zillowstatic.com/fp/fbc895d57dc8e448d40e038ec5fc8e5b-p_e.jpg,Multi-family home for sale,Listing by: Keystone Realty USA Corp,https://www.zillow.com/homes/NY_rb/,https://www.zillow.com/homedetails/69-Mac-Dougal-St-Brooklyn-NY-11233/2067956607_zpid/,https://www.zillow.com/homes/NY_rb/5_p/
318,87124017,"2214 Ellis Ave, Sioux City, IA 51109",42.514357,-96.488507,82500,USD,1,2,480.0 sqft,,84600,825,1,,FALSE,https://photos.zillowstatic.com/fp/f7c0754fe43291d6f56ecc1f4379762c-p_e.jpg,House for sale,Premier Realty Group,https://www.zillow.com/homes/IA_rb/,https://www.zillow.com/homedetails/2214-Ellis-Ave-Sioux-City-IA-51109/87124017_zpid/,https://www.zillow.com/homes/IA_rb/8_p/
703,26595591,"3800 Solarium Pl, Plano, TX 75075",33.027087,-96.765833,375000,USD,2,3,1868.0 sqft,,360300,2400,0,,FALSE,https://photos.zillowstatic.com/fp/6b9200526c7fd874010e3b512ed9e546-p_e.jpg,House for sale,,https://www.zillow.com/homes/TX_rb/,https://www.zillow.com/homedetails/3800-Solarium-Pl-Plano-TX-75075/26595591_zpid/,https://www.zillow.com/homes/TX_rb/18_p/
324,238308292,"3006 SE Glenstone Dr, Grimes, IA 50111",41.663909,-93.765244,215000,USD,3,3,1636.0 sqft,,220100,1713,1,,FALSE,https://photos.zillowstatic.com/fp/74dbe780f207a971fe8e49a2041a7443-p_e.jpg,Townhouse for sale,Charter House Real Estate,https://www.zillow.com/homes/IA_rb/,https://www.zillow.com/homedetails/3006-SE-Glenstone-Dr-Grimes-IA-50111/238308292_zpid/,https://www.zillow.com/homes/IA_rb/9_p/
743,773699,"1742 E Walnut St, Des Moines, IA 50316",41.593551,-93.587297,116000,USD,1,2,1134.0 sqft,,,,3,,FALSE,https://photos.zillowstatic.com/fp/e04a93dea136f441380c19d6e521dca3-p_e.jpg,House for sale,Coldwell Banker Mid America,https://www.zillow.com/homes/IA_rb/,https://www.zillow.com/homedetails/1742-E-Walnut-St-Des-Moines-IA-50316/773699_zpid/,https://www.zillow.com/homes/IA_rb/19_p/
243,94720114,"10649 156th St, Jamaica, NY 11433",40.696359,-73.797519,849000,USD,4,5,,,741800,2499,0,,FALSE,https://photos.zillowstatic.com/fp/0462f78f3db107e130c275fbd41e5092-p_e.jpg,Multi-family home for sale,Listing by: Winzone Realty Inc,https://www.zillow.com/homes/NY_rb/,https://www.zillow.com/homedetails/10649-156th-St-Jamaica-NY-11433/94720114_zpid/,https://www.zillow.com/homes/NY_rb/7_p/
213,28761440,"2 Quiet Peace Pl, Spring, TX 77381",30.170509,-95.515605,275000,USD,2,4,1974.0 sqft,,310300,2300,0,,FALSE,https://photos.zillowstatic.com/fp/07109c40568dc80a8165c55998240888-p_e.jpg,House for sale,Keller Williams Realty,https://www.zillow.com/homes/TX_rb/,https://www.zillow.com/homedetails/2-Quiet-Peace-Pl-Spring-TX-77381/28761440_zpid/,https://www.zillow.com/homes/TX_rb/6_p/
524,69669926,"4002 Dillard Ct, Dallas, TX 75209",32.835406,-96.823461,419975,USD,2,2,1760.0 sqft,,,,0,,FALSE,https://photos.zillowstatic.com/fp/9dac8609e4cdf753ec5760eb6015be5f-p_e.jpg,Townhouse for sale,,https://www.zillow.com/homes/TX_rb/,https://www.zillow.com/homedetails/4002-Dillard-Ct-Dallas-TX-75209/69669926_zpid/,https://www.zillow.com/homes/TX_rb/14_p/
223,76633009,"615 Chestnut St, La Porte City, IA 50651",42.312033,-92.193292,72500,USD,1,3,936.0 sqft,,59600,995,1,,FALSE,https://photos.zillowstatic.com/fp/1217fe2add01809763e7f93597cec3cc-p_e.jpg,House for sale,Fischels Residential Group,https://www.zillow.com/homes/IA_rb/,https://www.zillow.com/homedetails/615-Chestnut-St-La-Porte-City-IA-50651/76633009_zpid/,https://www.zillow.com/homes/IA_rb/6_p/
444,30471965,"451 Opalka Rd, Fort Johnson, NY 12070",42.995914,-74.247573,359900,USD,3,4,2642.0 sqft,,333400,2110,0,,FALSE,https://photos.zillowstatic.com/fp/6060b5c939b6c1a75dcf70512ab636d8-p_e.jpg,House for sale,Listing by: Howard Hanna,https://www.zillow.com/homes/NY_rb/,https://www.zillow.com/homedetails/451-Opalka-Rd-Fort-Johnson-NY-12070/30471965_zpid/,https://www.zillow.com/homes/NY_rb/12_p/
321,2067958244,"973 Moxham Rd, Harpersfield, NY 13786",42.453884,-74.672949,290000,USD,,0,,89.48 acres,,,0,,FALSE,https://photos.zillowstatic.com/fp/d6ec8678706318c5266dde91cb5cf295-p_e.jpg,Lot / Land for sale,Listing by: Delaware County Real Estate,https://www.zillow.com/homes/NY_rb/,https://www.zillow.com/homedetails/973-Moxham-Rd-Harpersfield-NY-13786/2067958244_zpid/,https://www.zillow.com/homes/NY_rb/9_p/
490,26421975,"9034 Deer Park, San Antonio, TX 78251",29.455178,-98.66363,235000,USD,2,3,1752.0 sqft,,224300,1699,0,,FALSE,https://photos.zillowstatic.com/fp/fd9c5ecb59c1688a93c5776546263f54-p_e.jpg,House for sale,Coldwell Banker D'Ann Harper,https://www.zillow.com/homes/TX_rb/,https://www.zillow.com/homedetails/9034-Deer-Park-San-Antonio-TX-78251/26421975_zpid/,https://www.zillow.com/homes/TX_rb/13_p/
339,244434746,"91 E 208th St APT 5G, Bronx, NY 10467",40.878719,-73.881519,125000,USD,1,1,750.0 sqft,,,,0,,FALSE,"https://maps.googleapis.com/maps/api/staticmap?mobile=false&sensor=true&maptype=satellite&size=575x242&zoom=17&center=40.878719,-73.881519&key=AIzaSyBJsNQO5ZeG-XAbqqWLKwG08fWITSxg33w&signature=UPpQZRPOnL0o5TwfiUl2izqopYg=",Condo for sale,Listing by: Essential Realty Group LLC,https://www.zillow.com/homes/NY_rb/,https://www.zillow.com/homedetails/91-E-208th-St-APT-5G-Bronx-NY-10467/244434746_zpid/,https://www.zillow.com/homes/NY_rb/9_p/
44,245038376,"214 Saint Johns Pl APT 1, Brooklyn, NY 11217",40.675728,-73.97291,1100000,USD,1,2,,,1023300,3300,0,,FALSE,https://photos.zillowstatic.com/fp/50281a1d06c43060843707522ecdb59a-p_e.jpg,Condo for sale,Listing by: Corcoran,https://www.zillow.com/homes/NY_rb/,https://www.zillow.com/homedetails/214-Saint-Johns-Pl-APT-1-Brooklyn-NY-11217/245038376_zpid/,https://www.zillow.com/homes/NY_rb/2_p/
469,84025846,"16607 Cottage Rose Trl, Cypress, TX 77429",30.009119,-95.691774,650000,USD,4,5,4112.0 sqft,,657700,3989,0,,FALSE,https://photos.zillowstatic.com/fp/bbb2feb009490dbbdc2dbb3507d7d417-p_e.jpg,House for sale,"SavvyWay Realty, Inc.",https://www.zillow.com/homes/TX_rb/,https://www.zillow.com/homedetails/16607-Cottage-Rose-Trl-Cypress-TX-77429/84025846_zpid/,https://www.zillow.com/homes/TX_rb/12_p/
34,93869459,"314 N Ohio Ave, Oxford, IA 52322",41.72607,-91.788601,234900,USD,2,3,2150.0 sqft,,230200,1950,0,,FALSE,https://photos.zillowstatic.com/fp/5b86033c827d81d3f1bdd59991e891b6-p_e.jpg,House for sale,,https://www.zillow.com/homes/IA_rb/,https://www.zillow.com/homedetails/314-N-Ohio-Ave-Oxford-IA-52322/93869459_zpid/,https://www.zillow.com/homes/IA_rb/
542,32968985,"520 Washington St, Peekskill, NY 10566",41.281082,-73.926645,450000,USD,2,3,1758.0 sqft,,,,0,,FALSE,https://photos.zillowstatic.com/fp/7388c52a8194a3cdf0d9f63aad78511a-p_e.jpg,House for sale,Listing by: Coldwell Banker Realty,https://www.zillow.com/homes/NY_rb/,https://www.zillow.com/homedetails/520-Washington-St-Peekskill-NY-10566/32968985_zpid/,https://www.zillow.com/homes/NY_rb/14_p/
295,29359730,"3700 John Simpson Trl, Austin, TX 78732",30.378176,-97.893078,710000,USD,3,4,2771.0 sqft,,,,0,,FALSE,https://photos.zillowstatic.com/fp/c1668734efae07e4b2e4bcfb80db5e12-p_e.jpg,Active,Keller Williams Realty-RR (WC),https://www.zillow.com/homes/TX_rb/,https://www.zillow.com/homedetails/3700-John-Simpson-Trl-Austin-TX-78732/29359730_zpid/,https://www.zillow.com/homes/TX_rb/8_p/
310,53403357,"224 Strawtown Rd, New City, NY 10956",41.139094,-73.967418,850000,USD,3,5,2418.0 sqft,,,,0,,FALSE,https://photos.zillowstatic.com/fp/6a6566c336f78b0b7301a2ba1ecc7dd9-p_e.jpg,Coming soon,Listing by: Howard Hanna Rand Realty,https://www.zillow.com/homes/NY_rb/,https://www.zillow.com/homedetails/224-Strawtown-Rd-New-City-NY-10956/53403357_zpid/,https://www.zillow.com/homes/NY_rb/8_p/
87,2067963338,"18 S 5th St, Eldridge, IA 52748",41.654718,-90.588785,368278,USD,3,3,1700.0 sqft,,,,0,,FALSE,https://photos.zillowstatic.com/fp/4b05b9db22ede426f54807293a53ffe4-p_e.jpg,New construction,New Home Sonar LLC,https://www.zillow.com/homes/IA_rb/,https://www.zillow.com/homedetails/18-S-5th-St-Eldridge-IA-52748/2067963338_zpid/,https://www.zillow.com/homes/IA_rb/3_p/
372,87479875,"1711 Marvin St, Sweetwater, TX 79556",32.488669,-100.401965,169900,USD,2,3,1313.0 sqft,,168589,996,0,,FALSE,https://photos.zillowstatic.com/fp/58dfa3c3cb3fbe810d4cc24bf7b39196-p_e.jpg,House for sale,,https://www.zillow.com/homes/TX_rb/,https://www.zillow.com/homedetails/1711-Marvin-St-Sweetwater-TX-79556/87479875_zpid/,https://www.zillow.com/homes/TX_rb/10_p/
276,76793131,"620 W Boone St, Marshalltown, IA 50158",42.045137,-92.925113,69900,USD,2,3,1747.0 sqft,,62300,1006,1,,FALSE,https://photos.zillowstatic.com/fp/0b77461285551c3c44a9b9d6b20eca34-p_e.jpg,House for sale,New Horizons Realty,https://www.zillow.com/homes/IA_rb/,https://www.zillow.com/homedetails/620-W-Boone-St-Marshalltown-IA-50158/76793131_zpid/,https://www.zillow.com/homes/IA_rb/7_p/
215,772433,"659 27th St, Des Moines, IA 50312",41.588745,-93.652914,165000,USD,2,2,798.0 sqft,,137400,1042,0,,FALSE,https://photos.zillowstatic.com/fp/70ab3bb938133f39363046bd48456dfe-p_e.jpg,House for sale,Charter House Real Estate,https://www.zillow.com/homes/IA_rb/,https://www.zillow.com/homedetails/659-27th-St-Des-Moines-IA-50312/772433_zpid/,https://www.zillow.com/homes/IA_rb/6_p/
401,61666196,"1627 Main St, Adel, IA 50003",41.616904,-94.029201,161500,USD,1,2,1110.0 sqft,,,,1,,FALSE,https://photos.zillowstatic.com/fp/ba9bc6a704e85e772624f6bbc8e40654-p_e.jpg,House for sale,Coldwell Banker Mid America,https://www.zillow.com/homes/IA_rb/,https://www.zillow.com/homedetails/1627-Main-St-Adel-IA-50003/61666196_zpid/,https://www.zillow.com/homes/IA_rb/11_p/
71,2067954445,"30634 W Front St, Brookshire, TX 77423",29.786288,-95.945907,717000,USD,3,2,1700.0 sqft,,,,0,,FALSE,https://photos.zillowstatic.com/fp/264ee01a9d6cfe0b1169c72f3e9972df-p_e.jpg,House for sale,Heart and Home Realty Group,https://www.zillow.com/homes/TX_rb/,https://www.zillow.com/homedetails/30634-W-Front-St-Brookshire-TX-77423/2067954445_zpid/,https://www.zillow.com/homes/TX_rb/2_p/
510,76695935,"306 W 5th St, Spencer, IA 51301",43.141924,-95.149318,74900,USD,2,3,1346.0 sqft,,72500,885,2,,FALSE,https://photos.zillowstatic.com/fp/e9c1857810fdc482db07b9df4c617fd7-p_e.jpg,House for sale,Hometown Realty,https://www.zillow.com/homes/IA_rb/,https://www.zillow.com/homedetails/306-W-5th-St-Spencer-IA-51301/76695935_zpid/,https://www.zillow.com/homes/IA_rb/13_p/
770,2068395180,"LOT 3 & #4, Durango, IA 52039",,,85000,USD,,,,3.58 acres,,,3,,FALSE,https://photos.zillowstatic.com/fp/92081b342f5c343135c75952a8785a40-p_e.jpg,Lot / Land for sale,Remax Advantage,https://www.zillow.com/homes/IA_rb/,https://www.zillow.com/homedetails/LOT-3-4-Durango-IA-52039/2068395180_zpid/,https://www.zillow.com/homes/IA_rb/20_p/
119,73065895,"1519 7th Ave SE, Cedar Rapids, IA 52403",41.980281,-91.649573,75000,USD,1,3,1232.0 sqft,,64300,1099,0,,FALSE,https://photos.zillowstatic.com/fp/2592b159f94ba6f4a306c91b2b2d267d-p_e.jpg,House for sale,GRAF HOME SELLING TEAM & ASSOCIATES,https://www.zillow.com/homes/IA_rb/,https://www.zillow.com/homedetails/1519-7th-Ave-SE-Cedar-Rapids-IA-52403/73065895_zpid/,https://www.zillow.com/homes/IA_rb/3_p/
6,2128209124,"491 Riverdale Ave APT 2E, Yonkers, NY 10705",40.915553,-73.902156,116000,USD,1,1,800.0 sqft,,470600,1599,0,,FALSE,https://photos.zillowstatic.com/fp/40a39def08020ab3d0e2f8e65ce5ce32-p_e.jpg,Condo for sale,Listing by: BHG Real Estate Choice Realty,https://www.zillow.com/homes/NY_rb/,https://www.zillow.com/homedetails/491-Riverdale-Ave-APT-2E-Yonkers-NY-10705/2128209124_zpid/,https://www.zillow.com/homes/NY_rb/
547,87024926,"16 3rd Ave W, Albia, IA 52531",41.02409,-92.809084,130000,USD,2,4,2296.0 sqft,,,,2,,FALSE,https://photos.zillowstatic.com/fp/fa1790568949c010274d489bd4438748-p_e.jpg,House for sale,Newman Real Estate,https://www.zillow.com/homes/IA_rb/,https://www.zillow.com/homedetails/16-3rd-Ave-W-Albia-IA-52531/87024926_zpid/,https://www.zillow.com/homes/IA_rb/14_p/
622,333455532,"1326 NW 32nd St, Ankeny, IA 50023",41.756917,-93.618009,359900,USD,3,4,1258.0 sqft,,,,2,,FALSE,https://photos.zillowstatic.com/fp/0a7b3699d149a32d76c0895df97273b4-p_e.jpg,New construction,RE/MAX Precision,https://www.zillow.com/homes/IA_rb/,https://www.zillow.com/homedetails/1326-NW-32nd-St-Ankeny-IA-50023/333455532_zpid/,https://www.zillow.com/homes/IA_rb/16_p/
184,244756799,"1025 5th Ave #7CN, New York, NY 10028",40.779616,-73.960933,1795000,USD,2,2,,,1874200,6499,0,,FALSE,https://photos.zillowstatic.com/fp/6c36544ef4413af7dfc757fe3b5f1c34-p_e.jpg,Condo for sale,Listing by: Corcoran,https://www.zillow.com/homes/NY_rb/,https://www.zillow.com/homedetails/1025-5th-Ave-7CN-New-York-NY-10028/244756799_zpid/,https://www.zillow.com/homes/NY_rb/5_p/
560,30943284,"385 Almay Rd, Rochester, NY 14616",43.231755,-77.640219,129900,USD,2,3,1358.0 sqft,,119300,1660,0,,FALSE,https://photos.zillowstatic.com/fp/82b4db085f252d3c5932fbdff57a1a52-p_e.jpg,House for sale,Listing by: Howard Hanna,https://www.zillow.com/homes/NY_rb/,https://www.zillow.com/homedetails/385-Almay-Rd-Rochester-NY-14616/30943284_zpid/,https://www.zillow.com/homes/NY_rb/14_p/
84,30461656,"605 Lakeview Rd, Broadalbin, NY 12025",43.100996,-74.17965,298000,USD,1,3,1476.0 sqft,,160200,1490,0,,FALSE,https://photos.zillowstatic.com/fp/e111f5092422f7e52f9ca600a4462d6d-p_e.jpg,House for sale,Listing by: Keller Williams Capital Dist,https://www.zillow.com/homes/NY_rb/,https://www.zillow.com/homedetails/605-Lakeview-Rd-Broadalbin-NY-12025/30461656_zpid/,https://www.zillow.com/homes/NY_rb/3_p/
22,299210265,"14658 Jade Forest Trl, Tyler, TX 75707",32.261348,-95.164226,495000,USD,3,4,2427.0 sqft,,,,0,,FALSE,https://photos.zillowstatic.com/fp/132cf50271e4dd43f19d85fc29b8179f-p_e.jpg,House for sale,Drake Real Estate & Investments,https://www.zillow.com/homes/TX_rb/,https://www.zillow.com/homedetails/14658-Jade-Forest-Trl-Tyler-TX-75707/299210265_zpid/,https://www.zillow.com/homes/TX_rb/
295,59649293,"36 Plum Pl, Islip, NY 11751",40.731984,-73.207391,699000,USD,3,4,2310.0 sqft,,556300,2844,0,,FALSE,https://photos.zillowstatic.com/fp/fa51f8d9347314378494fe2a25dd49f1-p_e.jpg,House for sale,Listing by: Daniel Gale Agency Inc,https://www.zillow.com/homes/NY_rb/,https://www.zillow.com/homedetails/36-Plum-Pl-Islip-NY-11751/59649293_zpid/,https://www.zillow.com/homes/NY_rb/8_p/
43,111910600,"820 Ocean Pkwy APT 219, Brooklyn, NY 11230",40.628385,-73.972057,324900,USD,1,1,820.0 sqft,,333700,2004,0,,FALSE,https://photos.zillowstatic.com/fp/5af986fb0151b831545ca5aa6cba9d60-p_e.jpg,Condo for sale,Listing by: Abacus Properties,https://www.zillow.com/homes/NY_rb/,https://www.zillow.com/homedetails/820-Ocean-Pkwy-APT-219-Brooklyn-NY-11230/111910600_zpid/,https://www.zillow.com/homes/NY_rb/2_p/
725,80258873,"631 Grisham Dr, Fate, TX 75087",32.946799,-96.395406,479000,USD,4,6,3873.0 sqft,,,,0,,FALSE,https://photos.zillowstatic.com/fp/01a0d5be7e2df4cc31bdd218fb3147f7-p_e.jpg,House for sale,,https://www.zillow.com/homes/TX_rb/,https://www.zillow.com/homedetails/631-Grisham-Dr-Fate-TX-75087/80258873_zpid/,https://www.zillow.com/homes/TX_rb/19_p/
417,76818797,"630 Spencer Ave, Council Bluffs, IA 51503",41.28634,-95.826485,175000,USD,2.5,3,1464.0 sqft,,176682,1214,2,,FALSE,https://photos.zillowstatic.com/fp/4c15c01b3fd61b7f2521caf49331b70c-p_e.jpg,House for sale,,https://www.zillow.com/homes/IA_rb/,https://www.zillow.com/homedetails/630-Spencer-Ave-Council-Bluffs-IA-51503/76818797_zpid/,https://www.zillow.com/homes/IA_rb/11_p/
301,121536146,"179 E Broadway St #C2, Arnolds Park, IA 51331",43.367132,-95.124079,465000,USD,2,3,1599.0 sqft,,447500,1631,1,,FALSE,https://photos.zillowstatic.com/fp/947ea257588496b74a77eda742d05996-p_e.jpg,Condo for sale,Stauss Realty,https://www.zillow.com/homes/IA_rb/,https://www.zillow.com/homedetails/179-E-Broadway-St-C2-Arnolds-Park-IA-51331/121536146_zpid/,https://www.zillow.com/homes/IA_rb/8_p/
190,29200179,"1446 Weiler Blvd, Fort Worth, TX 76112",32.757485,-97.238154,110000,USD,2,2,980.0 sqft,,136900,1162,0,,FALSE,https://photos.zillowstatic.com/fp/9d50ab7040a5d95968ff9cf4c477789a-p_e.jpg,House for sale,,https://www.zillow.com/homes/TX_rb/,https://www.zillow.com/homedetails/1446-Weiler-Blvd-Fort-Worth-TX-76112/29200179_zpid/,https://www.zillow.com/homes/TX_rb/5_p/
122,73065736,"1433 Bever Ave SE, Cedar Rapids, IA 52403",41.984452,-91.651374,49950,USD,3,3,1653.0 sqft,,58500,1428,0,,FALSE,https://photos.zillowstatic.com/fp/22dce108721e89ac5749da61f0ff6e88-p_e.jpg,House for sale,GRAF HOME SELLING TEAM & ASSOCIATES,https://www.zillow.com/homes/IA_rb/,https://www.zillow.com/homedetails/1433-Bever-Ave-SE-Cedar-Rapids-IA-52403/73065736_zpid/,https://www.zillow.com/homes/IA_rb/4_p/
796,29715072,"1187 Delaware Tpke, Delmar, NY 12054",42.599439,-73.89477,114900,USD,1,4,2448.0 sqft,,,1363,0,,FALSE,https://photos.zillowstatic.com/fp/7e3cb66e752b97ae54af3a0dcba47ae0-p_e.jpg,House for sale,"Listing by: Gabler Realty, LLC",https://www.zillow.com/homes/NY_rb/,https://www.zillow.com/homedetails/1187-Delaware-Tpke-Delmar-NY-12054/29715072_zpid/,https://www.zillow.com/homes/NY_rb/20_p/
